name,cate_1,cate_2,cate_3,area,address,lon,lat,rate,distance,tag,cate_4,link
의정부부대찌개,한식,부대찌개/섞어찌개,한식 음식점업,대치동,서울특별시 강남구 역삼로83길 24,37.5050823626224,127.059382014164,3.0,319.0,"찌개,전골",국/탕,https://place.map.kakao.com/11180084
바른치킨,닭/오리요리,후라이드/양념치킨,치킨 전문점,대치동,서울특별시 강남구 선릉로86길 17,37.5035560451156,127.051054283867,2.7,746.0,치킨,치킨,https://place.map.kakao.com/27198339
곰바위,한식,한식/백반/한정식,한식 음식점업,삼성동,서울특별시 강남구 봉은사로97길 16,37.5149248692146,127.058625030656,3.2,813.0,"곱창,막창",곱창/막창/순대,https://place.map.kakao.com/8664636
놀부보쌈삼성역점,한식,족발/보쌈전문,한식 음식점업,대치동,서울특별시 강남구 영동대로85길 7,37.50710315914289,127.063089181717,1.0,474.0,"족발,보쌈",육류/고기,https://place.map.kakao.com/2025057104
하루엔소쿠,일식/수산물,음식점-일식,일식 음식점업,대치동,서울특별시 강남구 테헤란로70길 16,37.5043938900755,127.053283110318,0.0,536.0,일식,일식/돈까스,https://place.map.kakao.com/436981442
남원추어탕,한식,추어탕전문,한식 음식점업,대치동,서울특별시 강남구 영동대로86길 27,37.5084892314627,127.066306771778,0.0,760.0,추어탕,국/탕,https://place.map.kakao.com/8878866
사천옥,한식,한식/백반/한정식,한식 음식점업,대치동,서울특별시 강남구 선릉로86길 12,37.5030950087048,127.050867848067,4.0,791.0,한식,한식,https://place.map.kakao.com/16296314
JS테이블,양식,돈가스전문점,서양식 음식점업,대치동,서울특별시 강남구 선릉로82길 5,37.502605216093,127.050466888835,3.2,853.0,"돈까스,우동",일식/돈까스,https://place.map.kakao.com/429042820
진가샤브샤브,별식/퓨전요리,샤브샤브전문,한식 음식점업,대치동,서울특별시 강남구 도곡로 426,37.4973872847024,127.05711491821,2.7,1142.0,샤브샤브,한식,https://place.map.kakao.com/22513042
가나안,분식,라면김밥분식,분식 및 김밥 전문점,대치동,서울특별시 강남구 역삼로 450,37.5022201469231,127.056386859801,0.0,615.0,분식,분식,https://place.map.kakao.com/10955441
종인이네만두,한식,한식/백반/한정식,한식 음식점업,삼성동,서울특별시 강남구 테헤란로81길 60-4,37.5104617201142,127.056000337255,4.0,349.0,분식,분식,https://place.map.kakao.com/469732154
조랭이부대찌개,한식,부대찌개/섞어찌개,한식 음식점업,대치동,서울특별시 강남구 테헤란로78길 16,37.5050499630967,127.05532200064,0.0,360.0,"찌개,전골",국/탕,https://place.map.kakao.com/1912685387
메밀향막국수,한식,한식/백반/한정식,한식 음식점업,대치동,서울특별시 강남구 삼성로 212,37.4996105819766,127.065897098053,0.0,1146.0,국수,국수,https://place.map.kakao.com/1710771339
도가촌제주생오겹살,한식,갈비/삼겹살,한식 음식점업,대치동,서울특별시 강남구 역삼로 433,37.5018433922011,127.054344513616,0.0,712.0,"육류,고기",육류/고기,https://place.map.kakao.com/12642828
황소곱창,한식,기타고기요리,한식 음식점업,삼성동,서울특별시 강남구 봉은사로82길 16,37.5121204549056,127.054972729014,3.7,555.0,"곱창,막창",곱창/막창/순대,https://place.map.kakao.com/333031201
이조복집,일식/수산물,복전문,한식 음식점업,삼성동,서울특별시 강남구 봉은사로112길 28,37.5130901923285,127.064733704943,3.0,863.0,복어,해물/생선,https://place.map.kakao.com/8056511
정통원조한방삼계탕,닭/오리요리,삼계탕전문,한식 음식점업,대치동,서울특별시 강남구 테헤란로68길 25,37.5036333626325,127.052828997841,2.6,623.0,삼계탕,국/탕,https://place.map.kakao.com/13302145
멘뮤샤,일식/수산물,음식점-일식,일식 음식점업,삼성동,서울특별시 강남구 영동대로 513,37.5118203253706,127.059139102428,2.1,480.0,일본식라면,일식/돈까스,https://place.map.kakao.com/26327288
BHC치킨,닭/오리요리,후라이드/양념치킨,치킨 전문점,삼성동,서울특별시 강남구 영동대로 611,37.51471467511929,127.059385563017,1.2,799.0,치킨,치킨,https://place.map.kakao.com/1002358855
새벽바다,일식/수산물,횟집,한식 음식점업,대치동,서울특별시 강남구 역삼로 449,37.5025150261899,127.056077779232,0.0,590.0,회,해물/생선,https://place.map.kakao.com/81423291
코우,일식/수산물,음식점-초밥전문,일식 음식점업,대치동,서울특별시 강남구 삼성로85길 11,37.5045881509052,127.056164781276,4.3,368.0,일식,일식/돈까스,https://place.map.kakao.com/2040666209
신의주부대찌개,한식,부대찌개/섞어찌개,한식 음식점업,삼성동,서울특별시 강남구 봉은사로108길 3-10,37.5144026470147,127.064344037841,3.0,949.0,"찌개,전골",국/탕,https://place.map.kakao.com/20642173
홍춘천치즈닭갈비,닭/오리요리,닭갈비전문,한식 음식점업,대치동,서울특별시 강남구 선릉로 424,37.502899170118496,127.050044694901,3.0,861.0,닭요리,육류/고기,https://place.map.kakao.com/1915607553
한솥도시락 대치동삼성아파트입구점,패스트푸드,도시락전문점,한식 음식점업,대치동,서울특별시 강남구 삼성로57길 22,37.4977915597162,127.059224668164,4.0,1103.0,도시락,패스트푸드,https://place.map.kakao.com/19934740
대치정육식당,한식,한식/백반/한정식,한식 음식점업,대치동,서울특별시 강남구 역삼로 450,37.5022201469231,127.056386859801,3.8,615.0,"육류,고기",육류/고기,https://place.map.kakao.com/1668197755
푸세울닭,닭/오리요리,후라이드/양념치킨,치킨 전문점,삼성동,서울특별시 강남구 영동대로 510,37.5105341373798,127.062831384964,3.4,550.0,치킨,치킨,https://place.map.kakao.com/16037910
부대찌개연,한식,한식/백반/한정식,한식 음식점업,대치동,서울특별시 강남구 테헤란로70길 28,37.50382098771549,127.053754061713,5.0,553.0,"찌개,전골",국/탕,https://place.map.kakao.com/25450695
사보텐코엑스점,양식,돈가스전문점,서양식 음식점업,삼성동,서울특별시 강남구 영동대로 513,37.5118203253706,127.059139102428,2.9,480.0,"돈까스,우동",일식/돈까스,https://place.map.kakao.com/26139651
싸움의고수,한식,한식/백반/한정식,한식 음식점업,대치동,서울특별시 강남구 도곡로 510,37.4990133147849,127.06216110792,3.0,1035.0,한정식,한식,https://place.map.kakao.com/301021081
제주몬트락 한티점,한식,기타고기요리,한식 음식점업,대치동,서울특별시 강남구 선릉로64길 11-4,37.4982209183807,127.053191408305,3.1,1123.0,"육류,고기",육류/고기,https://place.map.kakao.com/1016418717
만나분식,분식,라면김밥분식,분식 및 김밥 전문점,대치동,서울특별시 강남구 삼성로 212,37.4996105819766,127.065897098053,2.5,1146.0,분식,분식,https://place.map.kakao.com/11831430
광수사,일식/수산물,음식점-일식,일식 음식점업,삼성동,서울특별시 강남구 테헤란로77길 22,37.5080058117068,127.054244157979,3.8,313.0,일식집,일식/돈까스,https://place.map.kakao.com/12889091
둘둘치킨삼성역점,닭/오리요리,후라이드/양념치킨,치킨 전문점,대치동,서울특별시 강남구 영동대로85길 6,37.5074172415839,127.062926906141,1.0,456.0,치킨,치킨,https://place.map.kakao.com/7861733
국대떡볶기,분식,떡볶이전문,분식 및 김밥 전문점,대치동,서울특별시 강남구 선릉로 424,37.502899170118496,127.050044694901,2.7,861.0,떡볶이,분식,https://place.map.kakao.com/21442375
맥도날드,패스트푸드,패스트푸드,그외 기타 음식점업,대치동,서울특별시 강남구 도곡로 409,37.4973625540392,127.055147428125,1.8,1167.0,패스트푸드,패스트푸드,https://place.map.kakao.com/18606490
하남돼지집,한식,갈비/삼겹살,한식 음식점업,대치동,서울특별시 강남구 선릉로86길 10,37.50303039632129,127.050676395127,2.4,809.0,삼겹살,육류/고기,https://place.map.kakao.com/27271736
명인등심,한식,기타고기요리,한식 음식점업,삼성동,서울특별시 강남구 봉은사로86길 30,37.5114416285268,127.056847656648,3.6,430.0,"육류,고기",육류/고기,https://place.map.kakao.com/27274125
삼성한방삼계탕,닭/오리요리,삼계탕전문,한식 음식점업,삼성동,서울특별시 강남구 영동대로 602,37.5145808720792,127.060688099709,0.0,813.0,삼계탕,국/탕,https://place.map.kakao.com/7918948
고래즉석떡볶이,분식,떡볶이전문,분식 및 김밥 전문점,대치동,서울특별시 강남구 선릉로90길 56,37.5050715168437,127.053512070975,0.0,472.0,떡볶이,분식,https://place.map.kakao.com/2031716824
이삭김밥,분식,라면김밥분식,분식 및 김밥 전문점,삼성동,서울특별시 강남구 봉은사로74길 10,37.5117321468724,127.051493723883,3.9,716.0,분식,분식,https://place.map.kakao.com/16767238
놀란치킨,닭/오리요리,후라이드/양념치킨,치킨 전문점,대치동,서울특별시 강남구 테헤란로64길 9,37.5044880347843,127.051540139422,4.0,652.0,치킨,치킨,https://place.map.kakao.com/24245396
길농원,닭/오리요리,오리고기전문,한식 음식점업,대치동,서울특별시 강남구 테헤란로108길 28,37.5075691716498,127.066182502515,2.5,743.0,오리,육류/고기,https://place.map.kakao.com/22425225
더케이,한식,한식/백반/한정식,한식 음식점업,삼성동,서울특별시 강남구 봉은사로63길 19,37.512620526777,127.046561979816,0.0,1132.0,한식,한식,https://place.map.kakao.com/145995669
홍영재장수청국장,한식,한식/백반/한정식,한식 음식점업,대치동,서울특별시 강남구 영동대로 424,37.5074924116854,127.064452915868,3.5,590.0,한식,한식,https://place.map.kakao.com/19838635
24시와구아구,일식/수산물,아구전문,한식 음식점업,대치동,서울특별시 강남구 삼성로85길 42,37.5046227559395,127.053732632053,3.3,489.0,아구,해물/생선,https://place.map.kakao.com/26301176
김가네 한티점,분식,라면김밥분식,분식 및 김밥 전문점,대치동,서울특별시 강남구 역삼로64길 26,37.4994202902644,127.053311978695,3.0,995.0,분식,분식,https://place.map.kakao.com/523031525
역전우동0410,분식,우동전문점,분식 및 김밥 전문점,대치동,서울특별시 강남구 선릉로64길 17,37.498215623792895,127.05365515759,4.8,1110.0,"돈까스,우동",일식/돈까스,https://place.map.kakao.com/874428587
삼군김치찌개,한식,한식/백반/한정식,한식 음식점업,대치동,서울특별시 강남구 영동대로86길 28,37.50824704291809,127.066445518618,2.3,769.0,"찌개,전골",국/탕,https://place.map.kakao.com/1349821736
우노한우,한식,갈비/삼겹살,한식 음식점업,대치동,서울특별시 강남구 테헤란로70길 10,37.504978610728,127.053162623111,4.7,503.0,"육류,고기",육류/고기,https://place.map.kakao.com/11188654
용호낙지,한식,곱창/양구이전문,한식 음식점업,삼성동,서울특별시 강남구 테헤란로 419,37.5058626747859,127.052167445764,1.5,532.0,"해물,생선",해물/생선,https://place.map.kakao.com/1887899641
목포낙지횟집,일식/수산물,횟집,한식 음식점업,삼성동,서울특별시 강남구 테헤란로107길 12,37.510653764882896,127.065420157185,5.0,754.0,회,해물/생선,https://place.map.kakao.com/16765211
라무진,한식,기타고기요리,한식 음식점업,대치동,서울특별시 강남구 역삼로63길 6,37.501577076726896,127.052594848035,4.0,814.0,"육류,고기",육류/고기,https://place.map.kakao.com/26809547
남도밥상,한식,한식/백반/한정식,한식 음식점업,대치동,서울특별시 강남구 테헤란로 504,37.5066157960883,127.057326866248,4.4,121.0,한식,한식,https://place.map.kakao.com/16066403
소공동뚝배기집삼성본점,한식,한식/백반/한정식,한식 음식점업,삼성동,서울특별시 강남구 봉은사로114길 38,37.512653463780495,127.065338665087,2.3,870.0,"찌개,전골",국/탕,https://place.map.kakao.com/16502712
바토스파르나스몰,양식,정통양식/경양식,서양식 음식점업,삼성동,서울특별시 강남구 테헤란로 521,37.50918435794689,127.060789660534,4.2,317.0,"멕시칸,브라질",기타,https://place.map.kakao.com/1635696078
육시리,한식,기타고기요리,한식 음식점업,대치동,서울특별시 강남구 선릉로90길 56,37.5050715168437,127.053512070975,3.3,472.0,"육류,고기",육류/고기,https://place.map.kakao.com/1934269508
도마수산,일식/수산물,횟집,한식 음식점업,대치동,서울특별시 강남구 삼성로85길 33,37.5042799811461,127.054811431542,2.0,456.0,회,해물/생선,https://place.map.kakao.com/1052746464
한빛살한우,한식,기타고기요리,한식 음식점업,삼성동,서울특별시 강남구 삼성로100길 23-11,37.510784104901695,127.056878552762,5.0,357.0,"육류,고기",육류/고기,https://place.map.kakao.com/1971165064
KFC대치동점,닭/오리요리,후라이드/양념치킨,치킨 전문점,대치동,서울특별시 강남구 도곡로 517,37.4998932664258,127.062907844797,2.1,974.0,패스트푸드,패스트푸드,https://place.map.kakao.com/21442698
가득드림,한식,한식/백반/한정식,한식 음식업점,삼성동,서울특별시 강남구 영동대로 513,37.51293939692889,127.057100286394,4.7,591.0,한식,한식,https://place.map.kakao.com/24808019
딤딤섬 파르나스몰점,중식,중국음식/중국집,중식 음식점업,삼성동,서울특별시 강남구 테헤란로 521,37.50918435794689,127.060789660534,3.3,317.0,중식,중식,https://place.map.kakao.com/20435029
물조은선주집,일식/수산물,횟집,한식 음식점업,삼성동,서울특별시 강남구 봉은사로84길 29,37.511419724876895,127.056361545382,3.6,437.0,회,해물/생선,https://place.map.kakao.com/7940004
부산아지매국밥,한식,한식/백반/한정식,한식 음식점업,삼성동,서울특별시 강남구 삼성로 517,37.5080786526444,127.055464807235,1.0,208.0,국밥,국/탕,https://place.map.kakao.com/18776809
진양재순대,별식/퓨전요리,순대전문점,한식 음식점업,삼성동,서울특별시 강남구 봉은사로114길 38,37.512653463780495,127.065338665087,5.0,870.0,순대,곱창/막창/순대,https://place.map.kakao.com/1741793808
신마포갈매기삼성역점,한식,갈비/삼겹살,한식 음식점업,삼성동,서울특별시 강남구 삼성로104길 28,37.511244680532,127.05700849304,2.3,406.0,"육류,고기",육류/고기,https://place.map.kakao.com/19622145
여수동촌,일식/수산물,횟집,한식 음식점업,대치동,서울특별시 강남구 삼성로75길 9,37.5033640315366,127.057458233681,4.0,477.0,회,해물/생선,https://place.map.kakao.com/8013961
김동진장호왕곱창,한식,곱창/양구이전문,한식 음식점업,대치동,서울특별시 강남구 삼성로84길 15,37.5056454671616,127.058809426368,3.3,241.0,"곱창,막창",곱창/막창/순대,https://place.map.kakao.com/19661538
레아레스토랑,일식/수산물,음식점-일식,일식 음식점업,대치동,서울특별시 강남구 테헤란로 432,37.5057662115946,127.054747451829,0.0,338.0,일식,일식/돈까스,https://place.map.kakao.com/21317184
속이꽉찬만두99.9,분식,국수/만두/칼국수,분식 및 김밥 전문점,대치동,서울특별시 강남구 삼성로75길 26,37.5031368733148,127.056092570534,4.6,523.0,분식,분식,https://place.map.kakao.com/27444778
삼백플러스,한식,한식/백반/한정식,한식 음식점업,삼성동,서울특별시 강남구 테헤란로 447,37.5071191405077,127.05604243063,4.2,163.0,한식뷔페,한식,https://place.map.kakao.com/388258648
메콩타이,별식/퓨전요리,동남아음식전문점,기타 외국식 음식점업,대치동,서울특별시 강남구 테헤란로104길 9,37.5085888497427,127.065230995138,4.4,667.0,아시아음식,아시아음식,https://place.map.kakao.com/1771631725
노브랜드버거,패스트푸드,패스트푸드,"피자, 햄버거, 샌드위치 및 유사 음식점업",삼성동,서울특별시 강남구 영동대로 513,37.5118203253706,127.059139102428,2.9,480.0,패스트푸드,패스트푸드,https://place.map.kakao.com/1628132988
글로브비스트로,양식,기타전문서양음식점,서양식 음식점업,삼성동,서울특별시 강남구 테헤란로 521,37.50918435794689,127.060789660534,2.9,317.0,이탈리안,양식,https://place.map.kakao.com/345279502
스시산원,일식/수산물,음식점-초밥전문,일식 음식점업,삼성동,서울특별시 강남구 선릉로100길 42,37.506563357025,127.050778695333,3.1,628.0,"초밥,롤",일식/돈까스,https://place.map.kakao.com/22892397
김태주선산곱창,한식,곱창/양구이전문,한식 음식점업,대치동,서울특별시 강남구 선릉로82길 8,37.5023999030067,127.050706998067,4.3,853.0,"곱창,막창",곱창/막창/순대,https://place.map.kakao.com/2132214622
대치상회,한식,기타고기요리,한식 음식점업,대치동,서울특별시 강남구 삼성로58길 33,37.499270030575694,127.06385432146,3.7,1075.0,"육류,고기",육류/고기,https://place.map.kakao.com/1100924985
두꺼비정육식당,한식,갈비/삼겹살,한식 음식점업,대치동,서울특별시 강남구 역삼로 421,37.5014547499448,127.053071405956,3.4,803.0,"육류,고기",육류/고기,https://place.map.kakao.com/11891898
서갈비,한식,갈비/삼겹살,한식 음식점업,대치동,서울특별시 강남구 선릉로 420,37.5024863633718,127.050253504605,3.3,876.0,한식,한식,https://place.map.kakao.com/16501276
곱창도둑,한식,곱창/양구이전문,한식 음식점업,대치동,서울특별시 강남구 선릉로86길 5-4,37.5034502132565,127.050218674857,0.0,813.0,"곱창,막창",곱창/막창/순대,https://place.map.kakao.com/10168432
일공,중식,중국음식/중국집,중식 음식점업,삼성동,서울특별시 강남구 영동대로112길 61,37.5159682145228,127.06519551691,4.2,1134.0,중화요리,중식,https://place.map.kakao.com/17761305
노브랜드버거,패스트푸드,패스트푸드,"피자, 햄버거, 샌드위치 및 유사 음식점업",대치동,서울특별시 강남구 도곡로 501,37.4993112898711,127.061105597704,2.8,973.0,패스트푸드,패스트푸드,https://place.map.kakao.com/1628132988
델리커리,별식/퓨전요리,동남아음식전문점,기타 외국식 음식점업,대치동,서울특별시 강남구 테헤란로 440,37.505804183147696,127.056115540456,2.3,251.0,아시아음식,아시아음식,https://place.map.kakao.com/765021348
피자헛,패스트푸드,피자전문,"피자, 햄버거, 샌드위치 및 유사 음식점업",삼성동,서울특별시 강남구 봉은사로73길 19,37.5136239995974,127.050327304929,5.0,934.0,피자,패스트푸드,https://place.map.kakao.com/1507878747
유촌참치마을,일식/수산물,참치전문점,일식 음식점업,삼성동,서울특별시 강남구 삼성로104길 8,37.5106814454219,127.055307586141,4.5,401.0,참치회,해물/생선,https://place.map.kakao.com/546750999
이삭토스트,패스트푸드,토스트전문,"피자, 햄버거, 샌드위치 및 유사 음식점업",대치동,서울특별시 강남구 삼성로 212,37.4996105819766,127.065897098053,1.0,1146.0,토스트,패스트푸드,https://place.map.kakao.com/23479305
비첸향,중식,중국음식/중국집,중식 음식점업,삼성동,서울특별시 강남구 테헤란로 517,37.5086083814458,127.05974496335,3.0,205.0,중식,중식,https://place.map.kakao.com/14823152
7번가피자,패스트푸드,패스트푸드,그외 기타 음식점업,대치동,서울특별시 강남구 역삼로 454,37.5023955750736,127.056916220162,0.0,589.0,피자,패스트푸드,https://place.map.kakao.com/27062962
핫스토리부대찌개,한식,부대찌개/섞어찌개,한식 음식점업,삼성동,서울특별시 강남구 영동대로 513,37.5118203253706,127.059139102428,3.7,480.0,"찌개,전골",국/탕,https://place.map.kakao.com/20705850
초원족발,한식,족발/보쌈전문,한식 음식점업,삼성동,서울특별시 강남구 테헤란로81길 42,37.5095901340888,127.056305401087,2.0,251.0,"족발,보쌈",육류/고기,https://place.map.kakao.com/26794877
전주행복밥상,한식,한식/백반/한정식,한식 음식점업,삼성동,서울특별시 강남구 선릉로 514,37.5055951465088,127.049150940996,3.0,793.0,한식,한식,https://place.map.kakao.com/26419876
도마다리,한식,해장국/감자탕,한식 음식점업,삼성동,서울특별시 강남구 봉은사로72길 7,37.5117093124256,127.050894510661,5.0,756.0,감자탕,국/탕,https://place.map.kakao.com/25210984
로얄수제돈까스,양식,돈가스전문점,서양식 음식점업,대치동,서울특별시 강남구 영동대로85길 20-7,37.5073706982219,127.061604134108,5.0,340.0,"돈까스,우동",일식/돈까스,https://place.map.kakao.com/2077914681
기꾸스시,일식/수산물,음식점-초밥전문,일식 음식점업,대치동,서울특별시 강남구 테헤란로 614,37.5090190760852,127.064942855919,4.0,652.0,"초밥,롤",일식/돈까스,https://place.map.kakao.com/25037375
피자이탈리,한식,한식/백반/한정식,한식 음식점업,대치동,서울특별시 강남구 삼성로61길 41,37.498441596384,127.057124280426,5.0,1025.0,피자,패스트푸드,https://place.map.kakao.com/1759396220
생각나는김밥,분식,라면김밥분식,분식 및 김밥 전문점,대치동,서울특별시 강남구 삼성로67길 25,37.500570945842895,127.05748203466,0.0,787.0,분식,분식,https://place.map.kakao.com/296866197
고기고샵,한식,한식/백반/한정식,한식 음식점업,대치동,서울특별시 강남구 테헤란로84길 16,37.506138745319,127.058520470266,3.0,181.0,"육류,고기",육류/고기,https://place.map.kakao.com/27313637
60년전통 신촌황소곱창,한식,곱창/양구이전문,한식 음식점업,대치동,서울특별시 강남구 선릉로86길 32,37.5037109121337,127.052386922044,2.9,645.0,"곱창,막창",곱창/막창/순대,https://place.map.kakao.com/23372949
뮤직아날로그,양식,정통양식/경양식,서양식 음식점업,삼성동,서울특별시 강남구 테헤란로83길 40,37.51000062670511,127.056933655162,2.0,272.0,양식,양식,https://place.map.kakao.com/24573887
선릉김밥,분식,라면김밥분식,분식 및 김밥 전문점,삼성동,서울특별시 강남구 선릉로94길 3,37.5058713493375,127.048762881527,2.6,818.0,분식,분식,https://place.map.kakao.com/21210121
웰컴투조개골,일식/수산물,조개구이전문,한식 음식점업,대치동,서울특별시 강남구 선릉로64길 15-5,37.4984287749113,127.053267949413,3.0,1099.0,조개,해물/생선,https://place.map.kakao.com/14498883
어사출또,일식/수산물,횟집,한식 음식점업,대치동,서울특별시 강남구 삼성로85길 39,37.5042305880772,127.054269162912,1.5,489.0,회,해물/생선,https://place.map.kakao.com/1673981767
봉구스밥버거,분식,스낵,분식 및 김밥 전문점,대치동,서울특별시 강남구 선릉로 420,37.5024863633718,127.050253504605,1.8,876.0,주먹밥,분식,https://place.map.kakao.com/23223586
찐정해물아귀찜,일식/수산물,아구전문,한식 음식점업,대치동,서울특별시 강남구 선릉로72길 20,37.5003354677784,127.052825419187,0.0,922.0,한식,한식,https://place.map.kakao.com/703609058
홍미닭발,닭/오리요리,닭내장/닭발요리,한식 음식점업,대치동,서울특별시 강남구 선릉로72길 12,37.5001507397365,127.05226227169,3.3,964.0,닭요리,육류/고기,https://place.map.kakao.com/26543858
428레스토랑,양식,정통양식/경양식,서양식 음식점업,삼성동,서울특별시 강남구 봉은사로 428,37.5108299857511,127.046878848252,5.0,1023.0,양식,양식,https://place.map.kakao.com/2056982116
한성양갈비구이,한식,갈비/삼겹살,한식 음식점업,대치동,서울특별시 강남구 테헤란로70길 26,37.5039286505462,127.053696151941,4.6,547.0,갈비,육류/고기,https://place.map.kakao.com/15183799
돈천동식당,양식,돈가스전문점,서양식 음식점업,대치동,서울특별시 강남구 도곡로63길 36,37.49928795425289,127.053664243599,4.9,997.0,"돈까스,우동",일식/돈까스,https://place.map.kakao.com/1257180876
양가식당,한식,기타고기요리,한식 음식점업,대치동,서울특별시 강남구 테헤란로64길 17,37.503939082098896,127.051626255401,4.8,680.0,"육류,고기",육류/고기,https://place.map.kakao.com/11751648
거제지심도,일식/수산물,수산물전문음식점-종합,한식 음식점업,대치동,서울특별시 강남구 테헤란로108길 11,37.5086862820348,127.066157275422,4.3,750.0,한식,한식,https://place.map.kakao.com/24284703
롤링파스타,양식,스파게티전문점,서양식 음식점업,대치동,서울특별시 강남구 도곡로 442,37.4979595008024,127.0588154267,2.8,1081.0,이탈리안,양식,https://place.map.kakao.com/1687176590
사보텐,일식/수산물,음식점-일식,일식 음식점업,대치동,서울특별시 강남구 도곡로 504,37.4988016019982,127.061598284576,2.3,1040.0,"돈까스,우동",일식/돈까스,https://place.map.kakao.com/26139651
해봉,한식,기타고기요리,한식 음식점업,대치동,서울특별시 강남구 테헤란로108길 25,37.507734295754496,127.066553701136,3.2,776.0,"육류,고기",육류/고기,https://place.map.kakao.com/1669628804
진대감,한식,기타고기요리,한식 음식점업,대치동,서울특별시 강남구 테헤란로70길 25,37.5040209210691,127.053966432204,4.6,524.0,"육류,고기",육류/고기,https://place.map.kakao.com/27028634
KFC코엑스몰,패스트푸드,패스트푸드,그외 기타 음식점업,삼성동,서울특별시 강남구 영동대로 513,37.5118203253706,127.059139102428,1.9,480.0,패스트푸드,패스트푸드,https://place.map.kakao.com/26901141
수담한정식,한식,한식/백반/한정식,한식 음식점업,삼성동,서울특별시 강남구 봉은사로 418,37.510498243528495,127.045966861468,3.4,1088.0,한정식,한식,https://place.map.kakao.com/25744174
몽중헌,중식,중국음식/중국집,중식 음식점업,대치동,서울특별시 강남구 영동대로 325,37.503355569704,127.065465897933,3.7,830.0,중화요리,중식,https://place.map.kakao.com/909184198
산,일식/수산물,음식점-일식,일식 음식점업,삼성동,서울특별시 강남구 봉은사로 445,37.5118514655959,127.048404206517,0.0,949.0,일식,일식/돈까스,https://place.map.kakao.com/11108611
청담동장독대김치찌개,한식,부대찌개/섞어찌개,한식 음식점업,대치동,서울특별시 강남구 테헤란로64길 24,37.5033247917842,127.051430444003,1.4,737.0,"찌개,전골",국/탕,https://place.map.kakao.com/27288033
얼린돌접시,일식/수산물,횟집,한식 음식점업,대치동,서울특별시 강남구 삼성로58길 7,37.4986678041458,127.061769599979,0.0,1059.0,회,해물/생선,https://place.map.kakao.com/13075840
디퀸즈,양식,기타전문서양음식점,서양식 음식점업,삼성동,서울특별시 강남구 영동대로 513,37.5118203253706,127.059139102428,2.4,480.0,양식,양식,https://place.map.kakao.com/26901217
동호숯불바베큐,닭/오리요리,후라이드/양념치킨,치킨 전문점,대치동,서울특별시 강남구 역삼로 468,37.5027857991034,127.058392924513,0.0,543.0,치킨,치킨,https://place.map.kakao.com/16738973
브라운돈까스,양식,돈가스전문점,서양식 음식점업,삼성동,서울특별시 강남구 봉은사로 474,37.5123579883076,127.052006131015,1.7,729.0,"돈까스,우동",일식/돈까스,https://place.map.kakao.com/1338283409
초량돼지,한식,갈비/삼겹살,한식 음식점업,대치동,서울특별시 강남구 테헤란로108길 12,37.5086018859206,127.065739823306,2.9,712.0,"육류,고기",육류/고기,https://place.map.kakao.com/27549929
더참치,일식/수산물,참치전문점,일식 음식점업,대치동,서울특별시 강남구 삼성로86길 26,37.5060669370064,127.059686355337,4.7,244.0,참치회,해물/생선,https://place.map.kakao.com/25045796
천매도,일식/수산물,음식점-일식,일식 음식점업,대치동,서울특별시 강남구 삼성로 212,37.4996105819766,127.065897098053,2.0,1146.0,일식집,일식/돈까스,https://place.map.kakao.com/16961634
맥도날드,패스트푸드,패스트푸드,그외 기타 음식점업,삼성동,서울특별시 강남구 영동대로 513,37.5118203253706,127.059139102428,1.9,480.0,패스트푸드,패스트푸드,https://place.map.kakao.com/18606490
삼정복집,일식/수산물,복전문,한식 음식점업,삼성동,서울특별시 강남구 봉은사로 626,37.5146153836776,127.063900221245,3.0,945.0,복어,해물/생선,https://place.map.kakao.com/26586210
철그릴,별식/퓨전요리,철판구이요리전문,그외 기타 음식점업,삼성동,서울특별시 강남구 테헤란로 517,37.5086083814458,127.05974496335,2.5,205.0,철판요리,기타,https://place.map.kakao.com/1501467397
나의가야,한식,한식/백반/한정식,한식 음식점업,삼성동,서울특별시 강남구 테헤란로 517,37.5086083814458,127.05974496335,5.0,205.0,"찌개,전골",국/탕,https://place.map.kakao.com/1307908816
홍대개미,양식,스테이크전문점,서양식 음식점업,삼성동,서울특별시 강남구 테헤란로 521,37.50918435794689,127.060789660534,1.9,317.0,퓨전일식,일식/돈까스,https://place.map.kakao.com/1804767415
유정삼겹,한식,갈비/삼겹살,한식 음식점업,대치동,서울특별시 강남구 테헤란로 418,37.505088117665,127.052211169518,4.0,566.0,삼겹살,육류/고기,https://place.map.kakao.com/1013764681
최가네버섯샤브매운탕칼국수,일식/수산물,매운탕전문,한식 음식점업,대치동,서울특별시 강남구 선릉로64길 20,37.4979384981775,127.053930077709,4.2,1131.0,샤브샤브,한식,https://place.map.kakao.com/8098721
광화문미진,한식,한식/백반/한정식,한식 음식점업,삼성동,서울특별시 강남구 영동대로 513,37.5118203253706,127.059139102428,2.1,480.0,한식,한식,https://place.map.kakao.com/1393751331
카츠젠,양식,돈가스전문점,서양식 음식점업,대치동,서울특별시 강남구 선릉로86길 6,37.5030090135779,127.050258194081,4.0,839.0,분식,분식,https://place.map.kakao.com/94481995
3일소고기국밥,한식,해장국/감자탕,한식 음식점업,삼성동,서울특별시 강남구 봉은사로63길 3,37.5116784414891,127.047060352068,3.0,1045.0,국밥,국/탕,https://place.map.kakao.com/411116487
춘천닭갈비,닭/오리요리,닭갈비전문,한식 음식점업,삼성동,서울특별시 강남구 영동대로 513,37.5118203253706,127.059139102428,4.5,480.0,닭요리,육류/고기,https://place.map.kakao.com/22000205
이두부야순두부찌개,한식,두부요리전문,한식 음식점업,대치동,서울특별시 강남구 선릉로 420,37.5024863633718,127.050253504605,0.0,876.0,두부,한식,https://place.map.kakao.com/2023422305
돈까스짱,양식,돈가스전문점,서양식 음식점업,대치동,서울특별시 강남구 삼성로 212,37.4996105819766,127.065897098053,0.0,1146.0,"돈까스,우동",일식/돈까스,https://place.map.kakao.com/1656954153
리김밥,분식,라면김밥분식,분식 및 김밥 전문점,삼성동,서울특별시 강남구 영동대로 513,37.5118203253706,127.059139102428,5.0,480.0,분식,분식,https://place.map.kakao.com/21444589
황태마을,한식,황태전문,한식 음식점업,대치동,서울특별시 강남구 테헤란로78길 14-6,37.50531726740449,127.054945389174,5.0,359.0,"해물,생선",해물/생선,https://place.map.kakao.com/309139266
브라운치킨삼성점,닭/오리요리,후라이드/양념치킨,치킨 전문점,대치동,서울특별시 강남구 삼성로86길 28,37.5061043259542,127.05985554422,3.0,252.0,치킨,치킨,https://place.map.kakao.com/18552199
삼군김치찌개,한식,부대찌개/섞어찌개,한식 음식점업,대치동,서울특별시 강남구 선릉로86길 40-3,37.50378924656,127.05316633355,2.3,590.0,"찌개,전골",국/탕,https://place.map.kakao.com/1349821736
라이프,한식,기타고기요리,한식 음식점업,삼성동,서울특별시 강남구 영동대로96길 26,37.5109373298659,127.064817124889,3.3,722.0,"육류,고기",육류/고기,https://place.map.kakao.com/501291366
중독,분식,떡볶이전문,분식 및 김밥 전문점,삼성동,서울특별시 강남구 테헤란로 423,37.5061664333982,127.052966652655,3.8,454.0,떡볶이,분식,https://place.map.kakao.com/1416632903
가츠몽,양식,돈가스전문점,양식 음식점업,삼성동,서울특별시 강남구 봉은사로103길 6,37.5150038564702,127.061757425653,2.3,891.0,"돈까스,우동",일식/돈까스,https://place.map.kakao.com/24531540
본가스시,일식/수산물,음식점-초밥전문,일식 음식점업,삼성동,서울특별시 강남구 테헤란로 517,37.5086083814458,127.05974496335,2.0,205.0,"초밥,롤",일식/돈까스,https://place.map.kakao.com/21398237
숯칼,닭/오리요리,닭갈비전문,한식 전문점업,삼성동,서울특별시 강남구 삼성로91길 38,37.5065369168095,127.053097699424,4.7,430.0,닭요리,육류/고기,https://place.map.kakao.com/854208763
남로명가,한식,갈비/삼겹살,한식 음식점업,삼성동,서울특별시 강남구 영동대로106길 33,37.514155353139294,127.063838096781,5.0,901.0,갈비,육류/고기,https://place.map.kakao.com/27349134
뽕사부,중식,중국음식/중국집,중식 음식점업,삼성동,서울특별시 강남구 삼성로104길 16,37.51098500265049,127.056084236939,3.4,400.0,중화요리,중식,https://place.map.kakao.com/1347424892
909버거앤파스타,양식,스파게티전문점,서양식 음식점업,대치동,서울특별시 강남구 역삼로 420,37.5009665968304,127.052873995445,4.6,859.0,햄버거,패스트푸드,https://place.map.kakao.com/1989362902
다정한떡볶이,분식,떡볶이전문,분식 및 김밥 전문점,삼성동,서울특별시 강남구 테헤란로 517,37.5086083814458,127.05974496335,0.0,205.0,떡볶이,분식,https://place.map.kakao.com/1794752954
까,한식,한식/백반/한정식,한식 음식점업,대치동,서울특별시 강남구 역삼로 560,37.504798429458496,127.064475224171,0.0,672.0,한식,한식,https://place.map.kakao.com/1875469388
운좋은횟집,일식/수산물,횟집,한식 음식점업,삼성동,서울특별시 강남구 삼성로91길 28,37.506768682657,127.053909136476,0.0,354.0,회,해물/생선,https://place.map.kakao.com/1368604427
이태리부대찌개삼성점,한식,부대찌개/섞어찌개,한식 음식점업,삼성동,서울특별시 강남구 삼성로104길 16,37.51098500265049,127.056084236939,3.6,400.0,"찌개,전골",국/탕,https://place.map.kakao.com/90620451
시골집,한식,한식/백반/한정식,한식 음식점업,대치동,서울특별시 강남구 삼성로64길 41,37.5009985451009,127.063663094971,5.0,904.0,한식,한식,https://place.map.kakao.com/422438856
쭝일아찌5단계빨강떡볶이,분식,떡볶이전문,분식 및 김밥 전문점,삼성동,서울특별시 강남구 봉은사로67길 30,37.5136957039447,127.048041440985,2.7,1090.0,떡볶이,분식,https://place.map.kakao.com/1429596308
대치정육식당,한식,갈비/삼겹살,한식 음식점업,대치동,서울특별시 강남구 역삼로 450,37.5022201469231,127.056386859801,3.8,615.0,"육류,고기",육류/고기,https://place.map.kakao.com/1668197755
홍대개미파르나스몰점,한식,한식/백반/한정식,한식 음식점업,삼성동,서울특별시 강남구 테헤란로 521,37.50918435794689,127.060789660534,1.9,317.0,퓨전일식,일식/돈까스,https://place.map.kakao.com/1804767415
하드워커,한식,한식/백반/한정식,한식 음식점업,삼성동,서울특별시 강남구 삼성로100길 23-30,37.5110909747398,127.056942559168,4.0,390.0,피자,패스트푸드,https://place.map.kakao.com/64667802
히라메키,일식/수산물,음식점-일식,일식 음식점업,삼성동,서울특별시 강남구 테헤란로81길 32,37.5090338847985,127.056606489007,4.2,185.0,퓨전일식,일식/돈까스,https://place.map.kakao.com/10957050
엄마손,한식,한식/백반/한정식,한식 음식점업,삼성동,서울특별시 강남구 테헤란로107길 11,37.5104254799265,127.065038423419,0.0,712.0,분식,분식,https://place.map.kakao.com/1769801625
호봉토스트,패스트푸드,토스트전문,"피자, 햄버거, 샌드위치 및 유사 음식점업",삼성동,서울특별시 강남구 영동대로 513,37.5118203253706,127.059139102428,4.0,480.0,토스트,패스트푸드,https://place.map.kakao.com/21656650
아부리,한식,한식/백반/한정식,한식 음식점업,대치동,서울특별시 강남구 선릉로86길 31,37.5042034482249,127.052007459091,5.0,636.0,일식,일식/돈까스,https://place.map.kakao.com/321818888
오목집,한식,한식/백반/한정식,한식 음식점업,대치동,서울특별시 강남구 선릉로62길 19,37.4976514568119,127.054092028406,4.5,1158.0,"족발,보쌈",육류/고기,https://place.map.kakao.com/1200327999
바오미엔,중식,중국음식/중국집,중식 음식점업,대치동,서울특별시 강남구 선릉로72길 26,37.5005012676103,127.053275711708,1.0,888.0,중식,중식,https://place.map.kakao.com/992778846
허머스키친,양식,정통양식/경양식,서양식 음식점업,삼성동,서울특별시 강남구 테헤란로 521,37.5091935474624,127.060812167373,3.7,319.0,아시아음식,아시아음식,https://place.map.kakao.com/2022806150
얌샘김밥,분식,라면김밥분식,분식 및 김밥 전문점,삼성동,서울특별시 강남구 봉은사로 629,37.5151671240436,127.064164815065,3.1,1009.0,분식,분식,https://place.map.kakao.com/743700217
135튀김집,분식,라면김밥분식,분식 및 김밥 전문점,대치동,서울특별시 강남구 도곡로 510,37.4990133147849,127.06216110792,3.3,1035.0,분식,분식,https://place.map.kakao.com/814391602
키와미,일식/수산물,음식점-일식,일식 음식점업,대치동,서울특별시 강남구 삼성로 238,37.4986287111494,127.061385569605,4.5,1053.0,일본식라면,일식/돈까스,https://place.map.kakao.com/216500815
바비분식,분식,라면김밥분식,분식 및 김밥 전문점,삼성동,서울특별시 강남구 영동대로 513,37.5118203253706,127.059139102428,5.0,480.0,분식,분식,https://place.map.kakao.com/1593302748
흑산도홍어,패스트푸드,패스트푸드,그외 기타 음식점업,삼성동,서울특별시 강남구 영동대로 513,37.5118203253706,127.059139102428,0.0,480.0,"해물,생선",해물/생선,https://place.map.kakao.com/892959796
삼다족발,한식,족발/보쌈전문,한식 음식점업,삼성동,서울특별시 강남구 봉은사로 616,37.5143248706367,127.062489879016,3.7,852.0,"족발,보쌈",육류/고기,https://place.map.kakao.com/25413161
미드나잇인서울,패스트푸드,패스트푸드,그외 기타 음식점업,삼성동,서울특별시 강남구 영동대로 513,37.5118203253706,127.059139102428,0.0,480.0,패스트푸드,패스트푸드,https://place.map.kakao.com/2040072726
일미식당,한식,한식/백반/한정식,한식 음식점업,대치동,서울특별시 강남구 삼성로72길 64,37.50078881221,127.063349041731,0.0,908.0,한식,한식,https://place.map.kakao.com/16040564
복라이,중식,중국음식/중국집,중식 음식점업,삼성동,서울특별시 강남구 테헤란로63길 8,37.5058495050428,127.050527593,3.3,669.0,중화요리,중식,https://place.map.kakao.com/445040870
풍년참숯불갈비,한식,갈비/삼겹살,한식 음식점업,삼성동,서울특별시 강남구 봉은사로 616,37.5143248706367,127.062489879016,4.3,852.0,오리,육류/고기,https://place.map.kakao.com/26869701
부부식당,한식,한식/백반/한정식,한식 음식점업,대치동,서울특별시 강남구 삼성로 343,37.502104309047,127.058808640076,0.0,623.0,한식,한식,https://place.map.kakao.com/20749965
까,한식,한식/백반/한정식,한식 음식점업,대치동,서울특별시 강남구 선릉로72길 10-16,37.4992597820114,127.052397936831,0.0,1046.0,한식,한식,https://place.map.kakao.com/1875469388
차호랑,한식,한식/백반/한정식,한식 음식점업,대치동,서울특별시 강남구 테헤란로78길 26,37.5045040814778,127.055792600449,3.2,390.0,한식,한식,https://place.map.kakao.com/879254860
어가횟집,일식/수산물,횟집,한식 음식점업,삼성동,서울특별시 강남구 선릉로 570,37.5094135739944,127.044431058377,5.0,1192.0,회,해물/생선,https://place.map.kakao.com/9902933
1.2.3최유강중국집,중식,중국음식/중국집,중식 음식점업,대치동,서울특별시 강남구 삼성로85길 32,37.5047020772824,127.054636455439,2.2,428.0,중화요리,중식,https://place.map.kakao.com/1882872850
파파밸리피자,한식,한식/백반/한정식,한식 음식점업,삼성동,서울특별시 강남구 영동대로112길 9,37.5151864973794,127.060929370717,2.3,884.0,피자,패스트푸드,https://place.map.kakao.com/409707275
동의명가칼국수,분식,국수/만두/칼국수,분식 및 김밥 전문점,삼성동,서울특별시 강남구 영동대로114길 56,37.5166174102167,127.064112767897,0.0,1144.0,국수,국수,https://place.map.kakao.com/1750039986
해우리,한식,한식/백반/한정식,한식 음식점업,삼성동,서울특별시 강남구 테헤란로 415,37.5057764136568,127.051523839749,5.0,588.0,한정식,한식,https://place.map.kakao.com/720210595
지구당,한식,한식/백반/한정식,한식 음식점업,삼성동,서울특별시 강남구 테헤란로 409,37.5053527021472,127.05037553932,3.0,700.0,일식,일식/돈까스,https://place.map.kakao.com/240050925
JVL부대찌개삼성본점,한식,부대찌개/섞어찌개,한식 음식점업,삼성동,서울특별시 강남구 테헤란로81길 46,37.5097699656007,127.056257892765,3.3,271.0,"찌개,전골",국/탕,https://place.map.kakao.com/27583451
전우소고기해장국,한식,해장국/감자탕,한식 음식점업,삼성동,서울특별시 강남구 테헤란로81길 46-3,37.5099231296086,127.056255964366,4.6,286.0,해장국,국/탕,https://place.map.kakao.com/1256363200
더스푼,한식,한식/백반/한정식,한식 음식점업,대치동,서울특별시 강남구 역삼로 517,37.5036624368529,127.059852234901,1.0,480.0,한식,한식,https://place.map.kakao.com/16960253
제일제면소,분식,국수/만두/칼국수,분식 및 김밥 전문점,삼성동,서울특별시 강남구 영동대로 513,37.5118203253706,127.059139102428,2.0,480.0,국수,국수,https://place.map.kakao.com/1629734103
육족장,한식,한식/백반/한정식,한식 음식점업,삼성동,서울특별시 강남구 봉은사로 465,37.5124806862499,127.050454906535,0.0,839.0,"족발,보쌈",육류/고기,https://place.map.kakao.com/508548629
본죽&비빔밥cafe선릉점,별식/퓨전요리,죽전문점,한식 음식점업,대치동,서울특별시 강남구 선릉로 424,37.502899170118496,127.050044694901,3.0,861.0,죽,한식,https://place.map.kakao.com/16904610
방콕9,별식/퓨전요리,동남아음식전문점,기타 외국식 음식점업,삼성동,서울특별시 강남구 영동대로 513,37.5118203253706,127.059139102428,2.5,480.0,동남아음식,아시아음식,https://place.map.kakao.com/743558715
맛나,한식,한식/백반/한정식,한식 음식점업,삼성동,서울특별시 강남구 테헤란로107길 11,37.5104254799265,127.065038423419,0.0,712.0,분식,분식,https://place.map.kakao.com/16057091
영지식당,한식,한식/백반/한정식,한식 음식점업,대치동,서울특별시 강남구 삼성로 212,37.4996105819766,127.065897098053,4.8,1146.0,분식,분식,https://place.map.kakao.com/16327801
꼬망쎄,한식,한식/백반/한정식,한식 음식점업,대치동,서울특별시 강남구 삼성로63길 9,37.4997838679796,127.059346697153,0.0,885.0,도시락,패스트푸드,https://place.map.kakao.com/172381650
장진참치앤초밥,일식/수산물,참치전문점,일식 음식점업,대치동,서울특별시 강남구 선릉로86길 16,37.503258272613294,127.0510015023,3.7,771.0,참치회,해물/생선,https://place.map.kakao.com/1907259612
살루쪼,양식,정통양식/경양식,서양식 음식점업,삼성동,서울특별시 강남구 봉은사로57길 6,37.5112867038071,127.04541388364,4.4,1162.0,이탈리안,양식,https://place.map.kakao.com/554839068
참치명인,일식/수산물,참치전문점,일식 음식점업,대치동,서울특별시 강남구 테헤란로84길 16,37.506138745319,127.058520470266,4.0,181.0,참치회,해물/생선,https://place.map.kakao.com/27235865
아리노마마,일식,음식점-일식,일식 음식점업,대치동,서울특별시 강남구 도곡로63길 20,37.4984176401011,127.05412760123,3.5,1075.0,일식,일식/돈까스,https://place.map.kakao.com/24012312
봉노가,한식,기타고기요리,한식 음식점업,대치동,서울특별시 강남구 선릉로86길 5-4,37.5034502132565,127.050218674857,2.0,813.0,"육류,고기",육류/고기,https://place.map.kakao.com/1303402339
카토멘,일식,음식점-일식,일식 음식점업,대치동,서울특별시 강남구 삼성로85길 39,37.5042215784262,127.054269276563,3.6,490.0,일본식라면,일식/돈까스,https://place.map.kakao.com/19381360
마포만두,분식,국수/만두/칼국수,분식 및 김밥 전문점,대치동,서울특별시 강남구 선릉로86길 8,37.5030558800612,127.050483801514,1.8,820.0,분식,분식,https://place.map.kakao.com/12815391
홍대포,일식/수산물,수산물전문음식점-종합점,한식 음식점업,대치동,서울특별시 강남구 테헤란로70길 16,37.5043938900755,127.053283110318,2.8,536.0,"해물,생선",해물/생선,https://place.map.kakao.com/26586248
코엑스뽀모도로,양식,정통양식/경양식,서양식 음식점업,삼성동,서울특별시 강남구 영동대로 513,37.5118203253706,127.059139102428,2.0,480.0,이탈리안,양식,https://place.map.kakao.com/9803208
경원수산2호점,일식/수산물,수산물전문음식점-종합,한식 음식점업,삼성동,서울특별시 강남구 삼성로100길 23-15,37.5110083526462,127.056751307266,5.0,384.0,회,해물/생선,https://place.map.kakao.com/19842962
쟌슨빌부대찌개,한식,부대찌개/섞어찌개,한식 음식점업,대치동,서울특별시 강남구 선릉로90길 72,37.5055520611944,127.055010291997,4.3,336.0,"찌개,전골",국/탕,https://place.map.kakao.com/27583451
앤바,양식,정통양식/경양식,서양식 음식점업,대치동,서울특별시 강남구 삼성로85길 33,37.5042799811461,127.054811431542,0.0,456.0,양식,양식,https://place.map.kakao.com/566008867
강남교자,한식,한식/백반/한정식,한식 음식점업,대치동,서울특별시 강남구 삼성로85길 32,37.5047020772824,127.054636455439,0.0,428.0,국수,국수,https://place.map.kakao.com/21535548
치찌중화식탁,중식,중국음식/중국집,중식 음식점업,대치동,서울특별시 강남구 영동대로86길 28,37.508166313362096,127.066491767362,2.0,772.0,중화요리,중식,https://place.map.kakao.com/25647859
경성옥,한식,해장국/감자탕,한식 음식점업,대치동,서울특별시 강남구 역삼로 555,37.50499677951969,127.063353023441,5.0,575.0,한식,한식,https://place.map.kakao.com/1576430716
착한무안뻘낙지,일식/수산물,낙지/오징어,한식 음식점업,삼성동,서울특별시 강남구 봉은사로108길 19,37.5137717914835,127.064329290311,0.0,894.0,"해물,생선",해물/생선,https://place.map.kakao.com/1927908515
힘난다,패스트푸드,패스트푸드,"피자, 햄버거, 샌드위치 및 유사 음식점업",삼성동,서울특별시 강남구 영동대로 513,37.5118203253706,127.059139102428,4.7,480.0,햄버거,패스트푸드,https://place.map.kakao.com/1831692854
국제시장해장국,한식,해장국/감자탕,한식 음식점업,대치동,서울특별시 강남구 선릉로86길 42,37.503941866680094,127.053096544972,3.0,582.0,해장국,국/탕,https://place.map.kakao.com/1159894444
사이공키친,별식/퓨전요리,동남아음식전문점,기타 외국식 음식점업,대치동,서울특별시 강남구 영동대로85길 20-3,37.5071826631615,127.06175352685,5.0,356.0,베트남음식,아시아음식,https://place.map.kakao.com/1646787343
햇살소반,한식,한식/백반/한정식,한식 음식점업,대치동,서울특별시 강남구 테헤란로78길 16,37.5050499630967,127.05532200064,5.0,360.0,한식,한식,https://place.map.kakao.com/1034726478
동경규동,일식/수산물,음식점-일식,일식 음식점업,대치동,서울특별시 강남구 선릉로 420,37.5024863633718,127.050253504605,3.3,876.0,일식,일식/돈까스,https://place.map.kakao.com/982133156
남다른감자탕,한식,해장국/감자탕,한식 음식점업,대치동,서울특별시 강남구 테헤란로92길 13,37.507152848845,127.061403268825,4.5,326.0,감자탕,국/탕,https://place.map.kakao.com/1137775048
신라다랑원,일식/수산물,음식점-일식,일식 음식점업,삼성동,서울특별시 강남구 봉은사로68길 8,37.5112864128918,127.049847915042,4.1,807.0,일식,일식/돈까스,https://place.map.kakao.com/21385355
홍수계찜닭,닭/오리요리,찜닭전문점,한식 음식점업,삼성동,서울특별시 강남구 테헤란로87길 46,37.5109747661734,127.058188259504,3.8,372.0,닭요리,육류/고기,https://place.map.kakao.com/1179786154
아선재,한식,한식/백반/한정식,한식 음식점업,대치동,서울특별시 강남구 영동대로 333,37.5041436780828,127.064856631982,2.5,737.0,한정식,한식,https://place.map.kakao.com/663711334
뱅앤로스,한식,기타고기요리,한식 음식점업,대치동,서울특별시 강남구 삼성로 434,37.5056903281506,127.057655196286,5.0,218.0,"육류,고기",육류/고기,https://place.map.kakao.com/1739628923
고피자,패스트푸드,피자전문,"피자, 햄버거, 샌드위치 및 유사 음식점업",대치동,서울특별시 강남구 선릉로64길 11-2,37.4980412690087,127.053261532356,3.7,1139.0,피자,패스트푸드,https://place.map.kakao.com/61163488
참한우곱창,한식,곱창/양구이전문,한식 음식점업,대치동,서울특별시 강남구 테헤란로88길 10,37.50683996708,127.059450446397,3.0,174.0,"곱창,막창",곱창/막창/순대,https://place.map.kakao.com/475004754
남산노포식당,한식,곱창/양구이전문,한식 음식점업,대치동,서울특별시 강남구 선릉로86길 24,37.50346193408409,127.051677531484,4.0,710.0,"곱창,막창",곱창/막창/순대,https://place.map.kakao.com/1897048961
유리카모메,일식/수산물,음식점-일식,일식 음식점업,삼성동,서울특별시 강남구 삼성로95길 24,37.507686216985,127.053716584506,3.0,357.0,일식,일식/돈까스,https://place.map.kakao.com/859567527
조개천국,일식/수산물,조개구이전문,한식 음식점업,대치동,서울특별시 강남구 선릉로86길 42,37.503941866680094,127.053096544972,3.5,582.0,조개,해물/생선,https://place.map.kakao.com/166787768
더덮밥집,일식/수산물,음식점-일식,일식 음식점업,대치동,서울특별시 강남구 테헤란로92길 19,37.5067489414455,127.061600606484,0.0,353.0,일식,일식/돈까스,https://place.map.kakao.com/358966626
송옥 대치사거리점,분식,라면김밥분식,한식 음식점업,대치동,서울특별시 강남구 역삼로 506,37.5030998762283,127.059361646034,1.5,525.0,분식,분식,https://place.map.kakao.com/2028739181
수복방점,한식,갈비/삼겹살,한식 음식점업,대치동,서울특별시 강남구 선릉로86길 44-5,37.5037388136926,127.053619376899,4.7,568.0,갈비,육류/고기,https://place.map.kakao.com/1608071283
청담동마녀김밥,분식,라면김밥분식,분식 및 김밥 전문점,대치동,서울특별시 강남구 삼성로85길 11,37.5045881509052,127.056164781276,2.8,368.0,분식,분식,https://place.map.kakao.com/1651965364
모구모구돈부리,일식/수산물,음식점-일식,일식 음식점업,대치동,서울특별시 강남구 영동대로85길 34,37.5067059814339,127.060730226864,4.3,282.0,일식,일식/돈까스,https://place.map.kakao.com/1115317
국대떡볶이,분식,떡볶이전문,분식 및 김밥 전문점,삼성동,서울특별시 강남구 삼성로 571,37.5123404849208,127.053194055546,2.7,659.0,떡볶이,분식,https://place.map.kakao.com/21442375
전주비빔밥,한식,돌솥/비빕밥전문점,한식 음식점업,삼성동,서울특별시 강남구 테헤란로 517,37.5086083814458,127.05974496335,4.0,205.0,한정식,한식,https://place.map.kakao.com/8505992
훈남닭발,닭/오리요리,닭내장/닭발요리,한식 음식점업,삼성동,서울특별시 강남구 영동대로 513,37.5118203253706,127.059139102428,0.0,480.0,닭요리,육류/고기,https://place.map.kakao.com/1688158769
7번가피자,패스트푸드,피자전문,"피자, 햄버거, 샌드위치 및 유사 음식점업",대치동,서울특별시 강남구 역삼로 530,37.503671252358,127.060960519718,0.0,524.0,피자,패스트푸드,https://place.map.kakao.com/27062962
배꼽집,한식,기타고기요리,한식 음식점업,삼성동,서울특별시 강남구 영동대로 513,37.5118203253706,127.059139102428,2.6,480.0,"육류,고기",육류/고기,https://place.map.kakao.com/932122984
키친혁명,한식,한식/백반/한정식,한식 음식점업,삼성동,서울특별시 강남구 테헤란로113길 13,37.510864208189,127.065824738136,0.0,796.0,한식,한식,https://place.map.kakao.com/2147479490
동경규동,일식/수산물,음식점-일식,일식 음식점업,삼성동,서울특별시 강남구 테헤란로83길 15,37.5083983535212,127.057134787174,4.0,100.0,퓨전일식,일식/돈까스,https://place.map.kakao.com/982133156
화원일식,일식/수산물,음식점-일식,일식 음식점업,대치동,서울특별시 강남구 도곡로 510,37.4990133147849,127.06216110792,5.0,1035.0,일식집,일식/돈까스,https://place.map.kakao.com/10968301
마라테이블,중식,중국음식/중국집,중식 음식점업,대치동,서울특별시 강남구 선릉로86길 8,37.5030558800612,127.050483801514,4.3,820.0,중화요리,중식,https://place.map.kakao.com/236152470
자연의원죽,별식/퓨전요리,죽전문점,한식 음식점업,삼성동,서울특별시 강남구 영동대로112길 9,37.5151864973794,127.060929370717,0.0,884.0,죽,한식,https://place.map.kakao.com/1975840304
정참치,일식/수산물,참치전문점,일식 음식점업,대치동,서울특별시 강남구 삼성로81길 22,37.5043520020351,127.055930238825,4.0,400.0,참치회,해물/생선,https://place.map.kakao.com/43312928
짬뽕신,중식,중국음식/중국집,중식 음식점업,삼성동,서울특별시 강남구 영동대로 513,37.5118203253706,127.059139102428,2.5,480.0,중화요리,중식,https://place.map.kakao.com/21930094
소공순대,별식/퓨전요리,순대전문점,한식 음식점업,대치동,서울특별시 강남구 선릉로82길 4,37.5023437546162,127.050447580158,5.0,874.0,순대,곱창/막창/순대,https://place.map.kakao.com/751675235
연안식당,일식/수산물,횟집,한식 음식점업,삼성동,서울특별시 강남구 테헤란로87길 47,37.51072546106911,127.057433540361,5.0,344.0,회,해물/생선,https://place.map.kakao.com/1834011150
너나들이,닭/오리요리,닭내장/닭발요리,한식 음식점업,삼성동,서울특별시 강남구 테헤란로83길 46,37.5104134449559,127.056724860171,4.0,321.0,양식,양식,https://place.map.kakao.com/178734063
대치동숯불갈비,한식,갈비/삼겹살,한식 음식점업,대치동,서울특별시 강남구 선릉로64길 15-6,37.4984219399841,127.053539460316,0.0,1091.0,갈비,육류/고기,https://place.map.kakao.com/125006643
훠궈야파르나스몰점,중식,중국음식/중국집,중식 음식점업,삼성동,서울특별시 강남구 테헤란로 521,37.50918435794689,127.060789660534,2.4,317.0,샤브샤브,한식,https://place.map.kakao.com/1139076027
에그드랍파르나스점,패스트푸드,샌드위치전문점,"피자, 햄버거, 샌드위치 및 유사 음식점업",삼성동,서울특별시 강남구 테헤란로 521,37.50918435794689,127.060789660534,3.3,317.0,샌드위치,패스트푸드,https://place.map.kakao.com/1272238997
스쿨푸드딜리버리,분식,라면김밥분식,분식 및 김밥 전문점,삼성동,서울특별시 강남구 테헤란로77길 11-15,37.5067274791209,127.053264951586,0.0,410.0,분식,분식,https://place.map.kakao.com/740194382
에그셀런트,패스트푸드,샌드위치전문점,"피자, 햄버거, 샌드위치 및 유사 음식점업",대치동,서울특별시 강남구 선릉로86길 6,37.5030090135779,127.050258194081,2.3,839.0,샌드위치,패스트푸드,https://place.map.kakao.com/925716937
하동관,한식,한식/백반/한정식,한식 음식점업,삼성동,서울특별시 강남구 영동대로 513,37.5118203253706,127.059139102428,3.1,480.0,곰탕,국/탕,https://place.map.kakao.com/26428654
강산애,한식,한식/백반/한정식,한식 음식점업,대치동,서울특별시 강남구 삼성로64길 51,37.5010948242976,127.064442266877,3.8,937.0,한식,한식,https://place.map.kakao.com/18373246
빵빵떡볶이,분식,떡볶이전문,분식 및 김밥 전문점,삼성동,서울특별시 강남구 삼성로 571,37.5123404849208,127.053194055546,5.0,659.0,떡볶이,분식,https://place.map.kakao.com/1125166228
치즈쇼피자,패스트푸드,피자전문,"피자, 햄버거, 샌드위치 및 유사 음식점업",대치동,서울특별시 강남구 도곡로77길 8,37.4988951550687,127.058634041631,0.0,976.0,피자,패스트푸드,https://place.map.kakao.com/1764996484
네모오징어,일식/수산물,낙지/오징어,한식 음식점업,대치동,서울특별시 강남구 테헤란로114길 26,37.5079706026911,127.066810907256,3.0,799.0,"해물,생선",해물/생선,https://place.map.kakao.com/1083305339
그때그집,한식,족발/보쌈전문,한식 음식점업,대치동,서울특별시 강남구 삼성로82길 5,37.5051184000028,127.058250524643,4.7,284.0,"족발,보쌈",육류/고기,https://place.map.kakao.com/11512796
종로화덕,한식,기타고기요리,한식 음식점업,삼성동,서울특별시 강남구 봉은사로 504,37.5129244418251,127.054102913996,3.0,670.0,"육류,고기",육류/고기,https://place.map.kakao.com/21414663
리틀사이공파르나스몰점,별식/퓨전요리,동남아음식전문점,기타 외국식 음식점업,삼성동,서울특별시 강남구 테헤란로 521,37.50918435794689,127.060789660534,3.2,317.0,베트남음식,아시아음식,https://place.map.kakao.com/24002061
신사동덮밥,일식/수산물,음식점-일식,일식 음식점업,삼성동,서울특별시 강남구 삼성로 571,37.5123404849208,127.053194055546,3.7,659.0,일식,일식/돈까스,https://place.map.kakao.com/2140408838
지구당,일식/수산물,음식점-일식,일식 음식점업,삼성동,서울특별시 강남구 테헤란로 423,37.5061664333982,127.052966652655,3.0,454.0,일식,일식/돈까스,https://place.map.kakao.com/240050925
봉초밥,일식/수산물,음식점-초밥전문,일식 음식점업,대치동,서울특별시 강남구 삼성로58길 31,37.4993597689388,127.063807963104,4.5,1065.0,"초밥,롤",일식/돈까스,https://place.map.kakao.com/1960970003
배달왔소,한식,한식/백반/한정식,한식 음식점업,삼성동,서울특별시 강남구 삼성로103길 12,37.510386662713,127.053377092173,0.0,492.0,한식,한식,https://place.map.kakao.com/1022830369
계절밥상,한식,한식/백반/한정식,한식 음식점업,삼성동,서울특별시 강남구 영동대로 513,37.5118203253706,127.059139102428,1.9,480.0,한식뷔페,한식,https://place.map.kakao.com/2111525511
정 한뿌리죽,별식/퓨전요리,죽전문점,한식 음식점업,삼성동,서울특별시 강남구 테헤란로 517,37.5086083814458,127.05974496335,0.0,205.0,죽,한식,https://place.map.kakao.com/1953601477
미스꼬레아,한식,한식/백반/한정식,한식 음식점업,대치동,서울특별시 강남구 삼성로 238,37.4986287111494,127.061385569605,4.6,1053.0,한식,한식,https://place.map.kakao.com/1338082674
초가마을,한식,한식/백반/한정식,한식 음식점업,대치동,서울특별시 강남구 선릉로64길 12,37.4977889985827,127.053264717246,2.7,1166.0,한식,한식,https://place.map.kakao.com/1885427068
응급실국물떡볶이,분식,떡볶이전문,분식 및 김밥 전문점,대치동,서울특별시 강남구 삼성로51길 10-20,37.4975604460191,127.060754314198,3.0,1152.0,떡볶이,분식,https://place.map.kakao.com/2085106888
민속칼국수,분식,국수/만두/칼국수,분식 및 김밥 전문점,대치동,서울특별시 강남구 역삼로92길 7,37.503993476815694,127.062958390452,4.5,613.0,국수,국수,https://place.map.kakao.com/201474192
소풍,분식,라면김밥분식,분식 및 김밥 전문점,대치동,서울특별시 강남구 역삼로 417,37.5013434606555,127.052676968465,2.0,832.0,분식,분식,https://place.map.kakao.com/26306839
삼성한식부페,한식,한식/백반/한정식,한식 음식점업,삼성동,서울특별시 강남구 삼성로 575,37.5127543841476,127.05312095781,0.0,700.0,한식뷔페,한식,https://place.map.kakao.com/620302960
오징어청춘,일식/수산물,낙지/오징어,한식 음식점업,대치동,서울특별시 강남구 선릉로86길 44,37.5039701646827,127.053254530311,1.3,570.0,"해물,생선",해물/생선,https://place.map.kakao.com/27475097
마샹라위,중식,중국음식/중국집,중식 음식점업,삼성동,서울특별시 강남구 삼성로104길 15,37.5110909488855,127.055811432183,3.8,420.0,중식,중식,https://place.map.kakao.com/1424109080
이승재참치,일식/수산물,음식점-일식,일식 음식점업,대치동,서울특별시 강남구 역삼로63길 22,37.5025642370804,127.052096045207,3.8,754.0,참치회,해물/생선,https://place.map.kakao.com/983002997
밥맛나는세상,분식,라면김밥분식,분식 및 김밥 전문점,대치동,서울특별시 강남구 역삼로64길 5,37.5007783914217,127.053000779602,3.2,872.0,분식,분식,https://place.map.kakao.com/27288556
떡판왕,중식,중국음식/중국집,중식 음식점업,삼성동,서울특별시 강남구 테헤란로 423,37.5061664333982,127.052966652655,0.0,454.0,떡볶이,분식,https://place.map.kakao.com/824189851
풍년참숯불갈비,한식,갈비/삼겹살,한식 음식점업,삼성동,서울특별시 강남구 영동대로 510,37.5105341373798,127.062831384964,4.3,550.0,오리,육류/고기,https://place.map.kakao.com/26869701
걸작떡볶이,분식,떡볶이전문,분식 및 김밥 전문점,대치동,서울특별시 강남구 역삼로64길 19,37.4998713167778,127.053374141912,2.4,947.0,분식,분식,https://place.map.kakao.com/1532131925
써브웨이봉은사역점,패스트푸드,패스트푸드,그외 기타 음식점업,삼성동,서울특별시 강남구 봉은사로 627,37.5151833507934,127.063938374488,2.8,1000.0,샌드위치,패스트푸드,https://place.map.kakao.com/898686078
수하동,한식,한식/백반/한정식,한식 음식점업,대치동,서울특별시 강남구 삼성로 212,37.4996105819766,127.065897098053,0.0,1146.0,한식,한식,https://place.map.kakao.com/15200178
잇샐러드딜리버리,양식,정통양식/경양식,서양식 음식점업,삼성동,서울특별시 강남구 삼성로 571,37.5123404849208,127.053194055546,3.0,659.0,패스트푸드,패스트푸드,https://place.map.kakao.com/181050167
BHC치킨대치포스코점,닭/오리요리,후라이드/양념치킨,치킨 전문점,대치동,서울특별시 강남구 삼성로 417,37.5045984451458,127.057454025149,4.4,340.0,치킨,치킨,https://place.map.kakao.com/273304402
직화한상,한식,한식/백반/한정식,한식 음식점업,대치동,서울특별시 강남구 테헤란로 440,37.505804183147696,127.056115540456,3.0,251.0,한식,한식,https://place.map.kakao.com/372319001
그레잇피자,패스트푸드,피자전문,"피자, 햄버거, 샌드위치 및 유사 음식점업",대치동,서울특별시 강남구 영동대로85길 20,37.507019770485,127.06166508028,3.5,351.0,피자,패스트푸드,https://place.map.kakao.com/1906743321
히노아지,일식/수산물,음식점-일식,일식 음식점업,대치동,서울특별시 강남구 테헤란로 440,37.505804183147696,127.056115540456,1.0,251.0,일본식라면,일식/돈까스,https://place.map.kakao.com/1770371740
삼성동명인등심,한식,한식/백반/한정식,한식 음식점업,삼성동,서울특별시 강남구 봉은사로86길 30,37.5114416285268,127.056847656648,3.6,430.0,"육류,고기",육류/고기,https://place.map.kakao.com/27274125
이천가든코엑스,한식,한식/백반/한정식,한식 음식점업,삼성동,서울특별시 강남구 영동대로 513,37.5118203253706,127.059139102428,1.6,480.0,한식,한식,https://place.map.kakao.com/1580429169
청춘극장,한식,한식/백반/한정식,한식 음식점업,삼성동,서울특별시 강남구 봉은사로72길 6,37.511661900998895,127.050601015806,4.0,773.0,갈비,육류/고기,https://place.map.kakao.com/13498855
탐라도야지,한식,한식/백반/한정식,한식 음식점업,삼성동,서울특별시 강남구 삼성로104길 13,37.5110809446752,127.055687134224,3.4,423.0,"육류,고기",육류/고기,https://place.map.kakao.com/27285836
이타마에바루,한식,한식/백반/한정식,한식 음식점업,삼성동,서울특별시 강남구 봉은사로111길 6,37.515663676207296,127.065425555087,3.9,1119.0,일식,일식/돈까스,https://place.map.kakao.com/1881879202
삼원가든,한식,한식/백반/한정식,한식 음식점업,삼성동,서울특별시 강남구 영동대로 510,37.5105341373798,127.062831384964,3.2,550.0,"육류,고기",육류/고기,https://place.map.kakao.com/19351143
3호집,한식,한식/백반/한정식,한식 음식점업,삼성동,서울특별시 강남구 선릉로112길 48,37.5120603122444,127.047485330569,4.0,1031.0,한식,한식,https://place.map.kakao.com/522223916
수타우동겐,분식,우동전문점,분식 및 김밥 전문점,대치동,서울특별시 강남구 테헤란로70길 28,37.503775939464,127.053754630269,4.3,557.0,"돈까스,우동",일식/돈까스,https://place.map.kakao.com/1843980895
브라운돈까스,양식,정통양식/경양식,서양식 음식점업,대치동,서울특별시 강남구 영동대로85길 20,37.507019770485,127.06166508028,1.5,351.0,"돈까스,우동",일식/돈까스,https://place.map.kakao.com/1338283409
어원,일식/수산물,음식점-일식,일식 음식점업,대치동,서울특별시 강남구 삼성로58길 13,37.4988167176276,127.06236713636,4.6,1063.0,일식,일식/돈까스,https://place.map.kakao.com/293125397
한탕,분식,라면김밥분식,분식 및 김밥 전문점,삼성동,서울특별시 강남구 삼성로104길 7,37.5108787529554,127.055191986969,3.3,425.0,"불고기,두루치기",육류/고기,https://place.map.kakao.com/18897239
미즈호노스시야,일식/수산물,음식점-초밥전문,일식 음식점업,대치동,서울특별시 강남구 삼성로71길 45,37.5011571588687,127.055291879566,3.0,754.0,"초밥,롤",일식/돈까스,https://place.map.kakao.com/177913897
스쿨푸드,분식,라면김밥분식,분식 및 김밥 전문점,삼성동,서울특별시 강남구 테헤란로77길 11-15,37.5067274791209,127.053264951586,4.0,410.0,분식,분식,https://place.map.kakao.com/24285794
피자헛,한식,한식/백반/한정식,한식 음식점업,대치동,서울특별시 강남구 도곡로 532,37.4997891366711,127.064549034324,3.0,1059.0,피자,패스트푸드,https://place.map.kakao.com/1507878747
새묵호,일식/수산물,음식점-일식,일식 음식점업,대치동,서울특별시 강남구 테헤란로64길 9,37.5044880347843,127.051540139422,0.0,652.0,일식집,일식/돈까스,https://place.map.kakao.com/18994125
유림,한식,한식/백반/한정식,한식 음식점업,대치동,서울특별시 강남구 테헤란로 440,37.505804183147696,127.056115540456,3.6,251.0,닭요리,육류/고기,https://place.map.kakao.com/1901642072
스시마이우키친,일식/수산물,음식점-초밥전문,일식 음식점업,대치동,서울특별시 강남구 테헤란로 440,37.505804183147696,127.056115540456,2.3,251.0,"초밥,롤",일식/돈까스,https://place.map.kakao.com/335509430
김태완스시,일식/수산물,음식점-초밥전문,일식 음식점업,대치동,서울특별시 강남구 선릉로64길 17,37.498215623792895,127.05365515759,2.9,1110.0,일식집,일식/돈까스,https://place.map.kakao.com/2077289603
오름곰탕,한식,설렁탕집,한식 음식점업,삼성동,서울특별시 강남구 삼성로95길 23,37.50738170089151,127.053946642705,3.0,338.0,곰탕,국/탕,https://place.map.kakao.com/937298390
브라운돈까스,양식,정통양식/경양식,서양식 음식점업,대치동,서울특별시 강남구 테헤란로 440,37.505804183147696,127.056115540456,1.5,251.0,"돈까스,우동",일식/돈까스,https://place.map.kakao.com/1338283409
문어앤치킨,분식,라면김밥분식,분식 및 김밥 전문점,삼성동,서울특별시 강남구 삼성로104길 24,37.5111339457672,127.056681859074,3.8,399.0,치킨,치킨,https://place.map.kakao.com/27285902
쿡디퍼탄,일식/수산물,음식점-일식,일식 음식점업,대치동,서울특별시 강남구 삼성로85길 33,37.5042799811461,127.054811431542,0.0,456.0,일식,일식/돈까스,https://place.map.kakao.com/494608079
오뎅n카레,분식,라면김밥분식,분식 및 김밥 전문점,대치동,서울특별시 강남구 선릉로82길 45,37.50360421254209,127.053688936785,5.0,575.0,오뎅바,분식,https://place.map.kakao.com/1884175888
청담프리미엄앞족발,한식,족발/보쌈전문,한식 음식점업,삼성동,서울특별시 강남구 삼성로104길 15,37.5110909488855,127.055811432183,4.1,420.0,"족발,보쌈",육류/고기,https://place.map.kakao.com/987506261
도담도시락,패스트푸드,도시락전문점,한식 음식점업,삼성동,서울특별시 강남구 삼성로103길 12,37.510386662713,127.053377092173,0.0,492.0,도시락,패스트푸드,https://place.map.kakao.com/1875681824
타오,일식/수산물,음식점-일식,일식 음식점업,대치동,서울특별시 강남구 테헤란로78길 16,37.5050499630967,127.05532200064,0.0,360.0,일식,일식/돈까스,https://place.map.kakao.com/516065905
스윗밸런스,한식,한식/백반/한정식,한식 음식점업,대치동,서울특별시 강남구 테헤란로 440,37.505804183147696,127.056115540456,5.0,251.0,양식,양식,https://place.map.kakao.com/337515586
파파밸리피자,패스트푸드,패스트푸드,그외 기타 음식점업,삼성동,서울특별시 강남구 테헤란로 517,37.5086083814458,127.05974496335,2.3,205.0,피자,패스트푸드,https://place.map.kakao.com/409707275
BBQ치킨,패스트푸드,패스트푸드,그외 기타 음식점업,대치동,서울특별시 강남구 선릉로 326,37.4987612570104,127.052031026147,2.8,1110.0,치킨,치킨,https://place.map.kakao.com/2090400644
사계절,한식,한식/백반/한정식,한식 음식점업,삼성동,서울특별시 강남구 테헤란로107길 6,37.510222553418494,127.065583889791,3.7,747.0,"해물,생선",해물/생선,https://place.map.kakao.com/379898334
바른식당,한식,한식/백반/한정식,한식 음식점업,대치동,서울특별시 강남구 테헤란로86길 17,37.5062911881768,127.059559126487,0.0,219.0,"해물,생선",해물/생선,https://place.map.kakao.com/1498155497
정고깃집,한식,한식/백반/한정식,한식 음식점업,삼성동,서울특별시 강남구 삼성로100길 23-14,37.5105076950363,127.05724398862,2.0,321.0,"육류,고기",육류/고기,https://place.map.kakao.com/2118935679
온더보더코엑스,양식,정통양식/경양식,서양식 음식점업,삼성동,서울특별시 강남구 영동대로 513,37.5118203253706,127.059139102428,3.7,480.0,"멕시칸,브라질",기타,https://place.map.kakao.com/17103201
직화한상,한식,한식/백반/한정식,한식 음식점업,대치동,서울특별시 강남구 영동대로85길 20,37.507019770485,127.06166508028,3.0,351.0,한식,한식,https://place.map.kakao.com/372319001
소풍,분식,떡볶이전문,분식 및 김밥 전문점,삼성동,서울특별시 강남구 영동대로 513,37.5118203253706,127.059139102428,3.7,480.0,분식,분식,https://place.map.kakao.com/26306839
한솔도시락,패스트푸드,도시락전문점,한식 음식점업,대치동,서울특별시 강남구 삼성로57길 22,37.4977915597162,127.059224668164,2.3,1103.0,도시락,패스트푸드,https://place.map.kakao.com/26488707
아리가또맘마,일식/수산물,음식점-일식,일식 음식점업,삼성동,서울특별시 강남구 봉은사로68길 21,37.5107354542822,127.050805041229,0.0,703.0,일식,일식/돈까스,https://place.map.kakao.com/2012358671
마포갈매기,한식,갈비/삼겹살,한식 음식점업,삼성동,서울특별시 강남구 영동대로 513,37.5118203253706,127.059139102428,2.3,480.0,"육류,고기",육류/고기,https://place.map.kakao.com/19622145
대도식당강남직영점,한식,갈비/삼겹살,한식 음식점업,삼성동,서울특별시 강남구 삼성로 545,37.5101701181846,127.054465695593,3.3,404.0,"육류,고기",육류/고기,https://place.map.kakao.com/27388660
명우돈가,양식,정통양식/경양식,서양식 음식점업,삼성동,서울특별시 강남구 삼성로96길 6,37.5084387962408,127.05655742395,4.0,138.0,한정식,한식,https://place.map.kakao.com/27522546
이태리어부,한식,한식/백반/한정식,한식 음식점업,대치동,서울특별시 강남구 역삼로63길 24,37.5027796518486,127.051991531653,5.0,743.0,회,해물/생선,https://place.map.kakao.com/1516306195
당나라,중식,중국음식/중국집,중식 음식점업,삼성동,서울특별시 강남구 테헤란로83길 42,37.5101169393989,127.056830391636,4.3,287.0,중화요리,중식,https://place.map.kakao.com/1196656916
도스타코스,양식,정통양식/경양식,서양식 음식점업,삼성동,서울특별시 강남구 테헤란로69길 10,37.5065878009184,127.052701186037,4.5,462.0,"멕시칸,브라질",기타,https://place.map.kakao.com/105667862
일상정원,한식,한식/백반/한정식,한식 음식점업,삼성동,서울특별시 강남구 테헤란로87길 58,37.5120056433882,127.057519244112,4.3,485.0,일식,일식/돈까스,https://place.map.kakao.com/634815035
가마로강정,닭/오리요리,후라이드/양념치킨,치킨 전문점,대치동,서울특별시 강남구 선릉로 344,37.5005024109571,127.051172098342,3.0,984.0,닭강정,치킨,https://place.map.kakao.com/19553657
상까스&상화교자코엑스,양식,정통양식/경양식,서양식 음식점업,삼성동,서울특별시 강남구 테헤란로87길 58,37.5120056433882,127.057519244112,2.4,485.0,"돈까스,우동",일식/돈까스,https://place.map.kakao.com/679795890
채선당M,별식/퓨전요리,샤브샤브전문,한식 음식점업,삼성동,서울특별시 강남구 영동대로 513,37.5118203253706,127.059139102428,1.4,480.0,샤브샤브,한식,https://place.map.kakao.com/18173106
참치공간,일식/수산물,참치전문점,일식 음식점업,대치동,서울특별시 강남구 선릉로82길 45,37.50360421254209,127.053688936785,4.4,575.0,참치회,해물/생선,https://place.map.kakao.com/2048941045
육탄,한식,한식/백반/한정식,한식 음식점업,대치동,서울특별시 강남구 선릉로86길 31,37.5042034482249,127.052007459091,0.0,636.0,"육류,고기",육류/고기,https://place.map.kakao.com/1888956304
밥장인,한식,한식/백반/한정식,한식 음식점업,삼성동,서울특별시 강남구 테헤란로81길 56-6,37.5102382865264,127.056229374074,0.0,318.0,"찌개,전골",국/탕,https://place.map.kakao.com/1022570781
이비가짬뽕,중식,중국음식/중국집,중식 음식점업,대치동,서울특별시 강남구 도곡로 532,37.4997891366711,127.064549034324,3.2,1059.0,중화요리,중식,https://place.map.kakao.com/1377693149
치킨공식,닭/오리요리,후라이드/양념치킨,치킨 전문점,삼성동,서울특별시 강남구 테헤란로77길 17,37.5074824372614,127.054148964473,4.0,319.0,치킨,치킨,https://place.map.kakao.com/753087736
일일향,중식,중국음식/중국집,중식 음식점업,삼성동,서울특별시 강남구 영동대로 510,37.5105341373798,127.062831384964,3.7,550.0,중화요리,중식,https://place.map.kakao.com/954098848
이태리부대찌개,한식,부대찌개/섞어찌개,한식 음식점업,삼성동,서울특별시 강남구 봉은사로112길 6,37.5144970431419,127.064885825467,3.6,987.0,"찌개,전골",국/탕,https://place.map.kakao.com/90620451
쫀득이족발,한식,족발/보쌈전문,한식 음식점업,대치동,서울특별시 강남구 선릉로86길 38,37.5037949921976,127.052759094902,2.0,615.0,"족발,보쌈",육류/고기,https://place.map.kakao.com/2029231942
죽이야기,별식/퓨전요리,죽전문점,한식 음식점업,삼성동,서울특별시 강남구 테헤란로87길 57,37.511282073424,127.057177692137,4.5,407.0,죽,한식,https://place.map.kakao.com/1367729965
삼성돈구이,한식,한식/백반/한정식,한식 음식점업,삼성동,서울특별시 강남구 봉은사로108길 3-6,37.514382566632094,127.064084117674,5.0,934.0,"육류,고기",육류/고기,https://place.map.kakao.com/714432429
마포갈매기,한식,한식/백반/한정식,한식 음식점업,대치동,서울특별시 강남구 역삼로63길 23,37.5027055777404,127.051743648168,3.0,764.0,갈비,육류/고기,https://place.map.kakao.com/19622145
포포빈,한식,한식/백반/한정식,한식 음식점업,대치동,서울특별시 강남구 영동대로82길 29,37.5075760529388,127.06705334464,5.0,820.0,동남아음식,아시아음식,https://place.map.kakao.com/12503573
명원,중식,중국음식/중국집,중식 음식점업,삼성동,서울특별시 강남구 봉은사로 478,37.5126253472715,127.052760619947,4.0,708.0,중식,중식,https://place.map.kakao.com/1814033192
원죽전문점,양식,정통양식/경양식,서양식 음식점업,삼성동,서울특별시 강남구 영동대로112길 9,37.5151864973794,127.060929370717,4.0,884.0,죽,한식,https://place.map.kakao.com/16820419
원조양평해장국,한식,해장국/감자탕,한식 음식점업,삼성동,서울특별시 강남구 영동대로106길 29,37.5141705032051,127.063475931725,4.0,883.0,해장국,국/탕,https://place.map.kakao.com/1583902638
우소우소,한식,한식/백반/한정식,한식 음식점업,삼성동,서울특별시 강남구 봉은사로 610,37.5142096590769,127.061597692078,2.8,804.0,"육류,고기",육류/고기,https://place.map.kakao.com/895194175
백암가선순대,별식/퓨전요리,순대전문점,한식 음식점업,대치동,서울특별시 강남구 삼성로64길 35,37.5006792612527,127.06316945488,4.5,910.0,순대,곱창/막창/순대,https://place.map.kakao.com/1463986833
경성갈비,한식,갈비/삼겹살,한식 음식점업,대치동,서울특별시 강남구 테헤란로108길 8,37.5088265910197,127.065669157082,3.2,710.0,갈비,육류/고기,https://place.map.kakao.com/27391054
우밀가,한식,한식/백반/한정식,한식 음식점업,대치동,서울특별시 강남구 삼성로81길 35,37.5037304828169,127.054829669224,3.6,506.0,국수,국수,https://place.map.kakao.com/9145561
가장맛있는족발,한식,족발/보쌈전문,한식 음식점업,삼성동,서울특별시 강남구 봉은사로57길 5,37.5112210767274,127.045098003519,0.0,1186.0,"족발,보쌈",육류/고기,https://place.map.kakao.com/1254514866
왕가네왕만두,분식,국수/만두/칼국수,분식 및 김밥 전문점,대치동,서울특별시 강남구 역삼로 420,37.5009665968304,127.052873995445,3.7,859.0,분식,분식,https://place.map.kakao.com/16679079
향호면옥,한식,냉면집,한식 음식점업,대치동,서울특별시 강남구 선릉로64길 15-10,37.4987361907064,127.053399781109,4.0,1063.0,국수,국수,https://place.map.kakao.com/17132444
본촌치킨,닭/오리요리,후라이드/양념치킨,치킨 전문점,삼성동,서울특별시 강남구 영동대로115길 9,37.514774499271695,127.058977586234,0.0,800.0,치킨,치킨,https://place.map.kakao.com/17190021
평양옥,한식,한식/백반/한정식,한식 음식점업,대치동,서울특별시 강남구 선릉로86길 31,37.5041585815151,127.052030646855,0.0,637.0,"육류,고기",육류/고기,https://place.map.kakao.com/1187457527
브루클린더버거조인트,패스트푸드,패스트푸드,그외 기타 음식점업,삼성동,서울특별시 강남구 봉은사로84길 10,37.5126116796616,127.055554733374,3.5,585.0,햄버거,패스트푸드,https://place.map.kakao.com/18377454
예가낙지마을,일식/수산물,낙지/오징어,한식 음식점업,삼성동,서울특별시 강남구 영동대로 513,37.5118203253706,127.059139102428,4.0,480.0,"해물,생선",해물/생선,https://place.map.kakao.com/875469542
하얼빈,중식,중국음식/중국집,중식 음식점업,삼성동,서울특별시 강남구 선릉로96길 5-14,37.506685585416896,127.049171042083,3.0,765.0,중화요리,중식,https://place.map.kakao.com/308277778
한솥,패스트푸드,도시락전문점,한식 음식점업,대치동,서울특별시 강남구 선릉로 326,37.4987612570104,127.052031026147,2.3,1110.0,도시락,패스트푸드,https://place.map.kakao.com/17019416
내림손삼계탕,닭/오리요리,삼계탕전문,한식 음식점업,삼성동,서울특별시 강남구 봉은사로112길 16-4,37.5138190794363,127.064611492239,0.0,914.0,삼계탕,국/탕,https://place.map.kakao.com/906886762
신촌설렁탕,한식,설렁탕집,한식 음식점업,삼성동,서울특별시 강남구 선릉로 530,37.5069607731686,127.047538819136,2.7,905.0,설렁탕,국/탕,https://place.map.kakao.com/27305906
전라도맛집,한식,부대찌개/섞어찌개,한식 음식점업,대치동,서울특별시 강남구 선릉로 420,37.5024863633718,127.050253504605,0.0,876.0,한식,한식,https://place.map.kakao.com/16932977
일조룡,중식,중국음식/중국집,중식 음식점업,대치동,서울특별시 강남구 삼성로 212,37.4996105819766,127.065897098053,4.5,1146.0,중화요리,중식,https://place.map.kakao.com/8533554
해중천중화요리,중식,중국음식/중국집,중식 음식점업,삼성동,서울특별시 강남구 봉은사로72길 8,37.5115546035736,127.050704176953,4.2,759.0,중화요리,중식,https://place.map.kakao.com/18278577
쿠모,양식,정통양식/경양식,서양식 음식점업,삼성동,서울특별시 강남구 봉은사로72길 4,37.51177829887649,127.050509050447,0.0,788.0,"돈까스,우동",일식/돈까스,https://place.map.kakao.com/423537148
성북동청국장,한식,한식/백반/한정식,한식 음식점업,삼성동,서울특별시 강남구 봉은사로104길 6,37.5139508947592,127.061917659944,4.1,791.0,"찌개,전골",국/탕,https://place.map.kakao.com/16084885
담소소사골순대,별식/퓨전요리,순대전문점,한식 음식점업,삼성동,서울특별시 강남구 선릉로112길 18,37.5113377445462,127.045039960669,3.8,1195.0,순대,곱창/막창/순대,https://place.map.kakao.com/910616806
칠랑고,양식,정통양식/경양식,서양식 음식점업,대치동,서울특별시 강남구 역삼로67길 19,37.5025870644718,127.052695185885,4.0,719.0,패밀리레스토랑,양식,https://place.map.kakao.com/115045880
새마을식당,닭/오리요리,후라이드/양념치킨,치킨 전문점,대치동,서울특별시 강남구 테헤란로64길 24,37.5033247917842,127.051430444003,1.6,737.0,"육류,고기",육류/고기,https://place.map.kakao.com/18751936
아그라,별식/퓨전요리,동남아음식전문점,기타 외국식 음식점업,삼성동,서울특별시 강남구 영동대로 513,37.5118203253706,127.059139102428,3.0,480.0,아시아음식,아시아음식,https://place.map.kakao.com/26431185
홍대돈부리,일식/수산물,음식점-일식,일식 음식점업,삼성동,서울특별시 강남구 영동대로 513,37.51293939692889,127.057100286394,2.1,591.0,일식집,일식/돈까스,https://place.map.kakao.com/17360656
죠샌드위치,분식,라면김밥분식,분식 및 김밥 전문점,삼성동,서울특별시 강남구 영동대로 513,37.5118203253706,127.059139102428,5.0,480.0,샌드위치,패스트푸드,https://place.map.kakao.com/8085311
듬북담북,양식,정통양식/경양식,서양식 음식점업,대치동,서울특별시 강남구 선릉로86길 26,37.5035171721282,127.051823864438,4.0,697.0,"해물,생선",해물/생선,https://place.map.kakao.com/13065028
김영희강남동태찜,한식,한식/백반/한정식,한식 음식점업,삼성동,서울특별시 강남구 삼성로95길 23,37.50738170089151,127.053946642705,4.5,338.0,"해물,생선",해물/생선,https://place.map.kakao.com/1163773154
대독장삼성역점,한식,한식/백반/한정식,한식 음식점업,대치동,서울특별시 강남구 영동대로85길 9,37.5070834352286,127.062874525423,2.7,455.0,"찌개,전골",국/탕,https://place.map.kakao.com/1608871937
유타로,일식/수산물,음식점-일식,일식 음식점업,대치동,서울특별시 강남구 선릉로86길 15,37.5035180984722,127.050817251518,4.0,766.0,일본식라면,일식/돈까스,https://place.map.kakao.com/1432554243
남도사계고운님,한식,한식/백반/한정식,한식 음식점업,대치동,서울특별시 강남구 삼성로81길 22,37.5043520020351,127.055930238825,3.8,400.0,"해물,생선",해물/생선,https://place.map.kakao.com/10165519
또래오래대치점,닭/오리요리,후라이드/양념치킨,치킨 전문점,대치동,서울특별시 강남구 역삼로88길 11,37.5031796750606,127.06146432024,5.0,594.0,치킨,치킨,https://place.map.kakao.com/21545067
네네치킨,닭/오리요리,후라이드/양념치킨,치킨 전문점,대치동,서울특별시 강남구 삼성로 417,37.5045984451458,127.057454025149,1.0,340.0,치킨,치킨,https://place.map.kakao.com/439832064
샐러드박스,한식,한식/백반/한정식,한식 음식점업,삼성동,서울특별시 강남구 테헤란로 421,37.5059826128027,127.052516554823,0.0,498.0,양식,양식,https://place.map.kakao.com/333339057
스시효,일식/수산물,음식점-초밥전문,일식 음식점업,삼성동,서울특별시 강남구 테헤란로 517,37.5086083814458,127.05974496335,2.8,205.0,"초밥,롤",일식/돈까스,https://place.map.kakao.com/213218328
옥상달빛,닭/오리요리,후라이드/양념치킨,치킨 전문점,삼성동,서울특별시 강남구 테헤란로 517,37.5086083814458,127.05974496335,0.0,205.0,치킨,치킨,https://place.map.kakao.com/21555353
운봉,중식,중국음식/중국집,중식 음식점업,대치동,서울특별시 강남구 삼성로 348,37.5026656109985,127.059140894154,2.4,567.0,중화요리,중식,https://place.map.kakao.com/12544567
청준닭볶이,닭/오리요리,닭도리탕전문,한식 음식점업,대치동,서울특별시 강남구 선릉로76길 23,37.5019627682194,127.052375086633,3.2,791.0,닭요리,육류/고기,https://place.map.kakao.com/16589532
최우영식당삼성점,일식/수산물,음식점-일식,일식 음식점업,삼성동,서울특별시 강남구 삼성로 620,37.514957844146096,127.052606708949,2.3,931.0,회,해물/생선,https://place.map.kakao.com/1705233277
신촌설렁탕,한식,설렁탕집,한식 음식점업,삼성동,서울특별시 강남구 봉은사로114길 32,37.5129326739394,127.065323871611,2.7,889.0,설렁탕,국/탕,https://place.map.kakao.com/27305906
미스터순두부보쌈,한식,족발/보쌈전문,한식 음식점업,삼성동,서울특별시 강남구 영동대로 513,37.51293939692889,127.057100286394,1.8,591.0,두부,한식,https://place.map.kakao.com/23401527
더펍비스트로,양식,정통양식/경양식,서양식 음식점업,삼성동,서울특별시 강남구 삼성로108길 23,37.5123354549655,127.055942803727,4.2,545.0,양식,양식,https://place.map.kakao.com/110138270
밤장어,한식,한식/백반/한정식,한식 음식점업,대치동,서울특별시 강남구 삼성로85길 33,37.5042799811461,127.054811431542,3.0,456.0,장어,해물/생선,https://place.map.kakao.com/1479760470
루샌드위치,패스트푸드,패스트푸드,그외 기타 음식점업,대치동,서울특별시 강남구 역삼로70길 28,37.4996520538745,127.054123339891,3.7,945.0,샌드위치,패스트푸드,https://place.map.kakao.com/679827933
도명골청국장,한식,한식/백반/한정식,한식 음식점업,삼성동,서울특별시 강남구 봉은사로114길 38,37.512653463780495,127.065338665087,0.0,870.0,한식,한식,https://place.map.kakao.com/2130836465
세광양대창,한식,한식/백반/한정식,한식 음식점업,삼성동,서울특별시 강남구 테헤란로83길 29,37.509270754788496,127.056931526852,3.5,195.0,"곱창,막창",곱창/막창/순대,https://place.map.kakao.com/1899088586
김밥천국,분식,라면김밥분식,분식 및 김밥 전문점,삼성동,서울특별시 강남구 삼성로 517,37.5080786526444,127.055464807235,2.0,208.0,분식,분식,https://place.map.kakao.com/16055870
자연은맛있다,한식,한식/백반/한정식,한식 음식점업,삼성동,서울특별시 강남구 영동대로 513,37.5118203253706,127.059139102428,3.7,480.0,한식,한식,https://place.map.kakao.com/26832746
소노야코엑스점,일식/수산물,음식점-일식,일식 음식점업,삼성동,서울특별시 강남구 영동대로 513,37.5118203253706,127.059139102428,1.1,480.0,"돈까스,우동",일식/돈까스,https://place.map.kakao.com/24001883
이남장,한식,한식/백반/한정식,한식 음식점업,대치동,서울특별시 강남구 테헤란로64길 14,37.5039518334423,127.050970103005,5.0,726.0,한식,한식,https://place.map.kakao.com/16649489
앵그리버거,한식,한식/백반/한정식,한식 음식점업,삼성동,서울특별시 강남구 선릉로 514,37.5055951465088,127.049150940996,0.0,793.0,햄버거,패스트푸드,https://place.map.kakao.com/2049922688
치즈쇼피자,패스트푸드,피자전문,"피자, 햄버거, 샌드위치 및 유사 음식점업",대치동,서울특별시 강남구 선릉로64길 11-2,37.4980412690087,127.053261532356,0.0,1139.0,피자,패스트푸드,https://place.map.kakao.com/1764996484
맛난칼국수,분식,라면김밥분식,분식 및 김밥 전문점,대치동,서울특별시 강남구 삼성로 212,37.4996105819766,127.065897098053,5.0,1146.0,국수,국수,https://place.map.kakao.com/1523609624
놀부부대찌개철판구이,한식,부대찌개/섞어찌개,한식 음식점업,대치동,서울특별시 강남구 선릉로86길 37,37.504100503981,127.052653443004,1.0,599.0,"찌개,전골",국/탕,https://place.map.kakao.com/1067984705
청국장서갈비,한식,갈비/삼겹살,한식 음식점업,대치동,서울특별시 강남구 선릉로 420,37.5024863633718,127.050253504605,3.3,876.0,한식,한식,https://place.map.kakao.com/16501276
처갓집양념치킨,닭/오리요리,후라이드/양념치킨,치킨 전문점,대치동,서울특별시 강남구 선릉로66길 8,37.4984411732828,127.052566612482,2.5,1122.0,치킨,치킨,https://place.map.kakao.com/25971040
대치동함흥냉면,한식,냉면집,한식 음식점업,대치동,서울특별시 강남구 도곡로 424,37.4972596148278,127.056924267264,3.1,1157.0,냉면,국수,https://place.map.kakao.com/16048638
고운님,일식/수산물,수산물전문음식점-종합,한식 음식점업,대치동,서울특별시 강남구 영동대로86길 11,37.508073508150495,127.06501120492,3.8,641.0,"해물,생선",해물/생선,https://place.map.kakao.com/13319991
삼성골,한식,한식/백반/한정식,한식 음식점업,대치동,서울특별시 강남구 영동대로86길 12,37.5078134808243,127.065172799171,4.5,654.0,한식,한식,https://place.map.kakao.com/636968425
한솥도시락,패스트푸드,도시락전문점,한식 음식점업,대치동,서울특별시 강남구 선릉로90길 56,37.5050715168437,127.053512070975,2.3,472.0,도시락,패스트푸드,https://place.map.kakao.com/17019416
올래곱창,한식,곱창/양구이전문,한식 음식점업,대치동,서울특별시 강남구 역삼로 420,37.5009665968304,127.052873995445,2.5,859.0,"곱창,막창",곱창/막창/순대,https://place.map.kakao.com/16065303
제주은희네해장국,한식,해장국/감자탕,한식 음식점업,삼성동,서울특별시 강남구 삼성로91길 28,37.506768682657,127.053909136476,2.5,354.0,해장국,국/탕,https://place.map.kakao.com/658195231
생선지존진땡이,한식,한식/백반/한정식,한식 음식점업,삼성동,서울특별시 강남구 영동대로106길 41,37.5142409210849,127.064402615689,0.0,938.0,"해물,생선",해물/생선,https://place.map.kakao.com/27227583
피자리아시오,패스트푸드,피자전문,"피자, 햄버거, 샌드위치 및 유사 음식점업",대치동,서울특별시 강남구 삼성로63길 15,37.4996271909073,127.058907590324,4.2,897.0,양식,양식,https://place.map.kakao.com/26993273
수랏간,한식,한식/백반/한정식,한식 음식점업,대치동,서울특별시 강남구 역삼로 410,37.5007168959931,127.052074160519,3.2,920.0,"육류,고기",육류/고기,https://place.map.kakao.com/1537249895
작은어촌,한식,한식/백반/한정식,한식 음식점업,대치동,서울특별시 강남구 선릉로 318,37.4980610443852,127.052356538383,5.0,1168.0,회,해물/생선,https://place.map.kakao.com/16767458
김밥천국,분식,라면김밥분식,분식 및 김밥 전문점,대치동,서울특별시 강남구 테헤란로114길 20,37.5083485623725,127.066749647748,2.3,797.0,분식,분식,https://place.map.kakao.com/16055870
신전떡볶이,분식,떡볶이전문,분식 및 김밥 전문점,대치동,서울특별시 강남구 선릉로 420,37.5024863633718,127.050253504605,2.1,876.0,떡볶이,분식,https://place.map.kakao.com/731677827
전주집,한식,한식/백반/한정식,한식 음식점업,삼성동,서울특별시 강남구 테헤란로77길 11-9,37.5069394130027,127.05385042857,2.2,354.0,"육류,고기",육류/고기,https://place.map.kakao.com/16903839
깻잎치킨,닭/오리요리,후라이드/양념치킨,치킨 전문점,삼성동,서울특별시 강남구 테헤란로87길 17,37.5087322643722,127.058329544526,2.6,131.0,닭강정,치킨,https://place.map.kakao.com/1938120688
서울만두,분식,국수/만두/칼국수,분식 및 김밥 전문점,삼성동,서울특별시 강남구 테헤란로 517,37.5086083814458,127.05974496335,3.5,205.0,분식,분식,https://place.map.kakao.com/26965298
찰스김밥,분식,라면김밥분식,분식 및 김밥 전문점,대치동,서울특별시 강남구 선릉로 416,37.5020549005612,127.050383378895,2.8,900.0,분식,분식,https://place.map.kakao.com/23611877
본정돈까스,양식,돈가스전문점,서양식 음식점업,대치동,서울특별시 강남구 삼성로63길 17,37.4995715111052,127.058704717464,4.6,902.0,"돈까스,우동",일식/돈까스,https://place.map.kakao.com/16820983
레몬도시락,패스트푸드,도시락전문점,한식 음식점업,삼성동,서울특별시 강남구 삼성로 517,37.5080786526444,127.055464807235,2.0,208.0,도시락,패스트푸드,https://place.map.kakao.com/16534000
해초록사랑,일식/수산물,횟집,한식 음식점업,삼성동,서울특별시 강남구 삼성로 539,37.509838119311,127.054639549785,3.8,368.0,회,해물/생선,https://place.map.kakao.com/8674497
신호탕떡볶이,분식,떡볶이전문,분식 및 김밥 전문점,삼성동,서울특별시 강남구 삼성로103길 12,37.510386662713,127.053377092173,0.0,492.0,떡볶이,분식,https://place.map.kakao.com/1672066067
일우별관,한식,한식/백반/한정식,한식 음식점업,삼성동,서울특별시 강남구 영동대로96길 37,37.5116636532106,127.065509367365,0.0,816.0,한식,한식,https://place.map.kakao.com/16054556
우노,한식,한식/백반/한정식,한식 음식점업,대치동,서울특별시 강남구 테헤란로70길 10,37.504978610728,127.053162623111,4.7,503.0,"육류,고기",육류/고기,https://place.map.kakao.com/11188654
교토가츠규봉은사역점,일식/수산물,음식점-일식,일식 음식점업,삼성동,서울특별시 강남구 영동대로 602,37.5145808720792,127.060688099709,3.0,813.0,"돈까스,우동",일식/돈까스,https://place.map.kakao.com/1806206259
코끼리분식,분식,라면김밥분식,분식 및 김밥 전문점,대치동,서울특별시 강남구 선릉로 338,37.4998831063711,127.051473983905,0.0,1026.0,분식,분식,https://place.map.kakao.com/27288230
김영희강남동태찜,일식/수산물,해물찜/탕전문,한식 음식점업,대치동,서울특별시 강남구 선릉로62길 13,37.49752088351391,127.053539523479,4.5,1186.0,"해물,생선",해물/생선,https://place.map.kakao.com/1163773154
고피자,한식,한식/백반/한정식,한식 음식점업,삼성동,서울특별시 강남구 영동대로 513,37.5118203253706,127.059139102428,5.0,480.0,피자,패스트푸드,https://place.map.kakao.com/61163488
홍스나나,일식/수산물,음식점-일식,일식 음식점업,삼성동,서울특별시 강남구 봉은사로61길 17,37.5122112585445,127.046092105877,4.0,1148.0,일식,일식/돈까스,https://place.map.kakao.com/19834362
쫀득이보쌈,한식,족발/보쌈전문,한식 음식점업,대치동,서울특별시 강남구 선릉로86길 38,37.5037949921976,127.052759094902,2.0,615.0,"족발,보쌈",육류/고기,https://place.map.kakao.com/2029231942
강남집밥,한식,한식/백반/한정식,한식 음식점업,삼성동,서울특별시 강남구 테헤란로107길 10,37.5104834759741,127.065535392317,3.0,755.0,한식뷔페,한식,https://place.map.kakao.com/27361398
잇쇼우,일식/수산물,음식점-일식,일식 음식점업,삼성동,서울특별시 강남구 선릉로 524,37.5066430806136,127.048368528927,3.4,836.0,"돈까스,우동",일식/돈까스,https://place.map.kakao.com/1681932014
치쿠린,일식/수산물,음식점-일식,일식 음식점업,삼성동,서울특별시 강남구 삼성로 517,37.5080786526444,127.055464807235,5.0,208.0,일본식라면,일식/돈까스,https://place.map.kakao.com/1880526197
강남동태찜,일식/수산물,매운탕전문,한식 음식점업,대치동,서울특별시 강남구 테헤란로 440,37.505804183147696,127.056115540456,4.5,251.0,"해물,생선",해물/생선,https://place.map.kakao.com/1163773154
강남면옥,한식,냉면집,한식 음식점업,대치동,서울특별시 강남구 도곡로 428,37.4974610767342,127.057328865525,2.6,1133.0,냉면,국수,https://place.map.kakao.com/8163082
더착한피자,패스트푸드,피자전문,"피자, 햄버거, 샌드위치 및 유사 음식점업",대치동,서울특별시 강남구 역삼로78길 15,37.5015605650684,127.057288637623,4.0,678.0,피자,패스트푸드,https://place.map.kakao.com/9538622
북창동순두부,한식,순두부전문,한식 음식점업,대치동,서울특별시 강남구 역삼로63길 24,37.5027796518486,127.051991531653,2.7,743.0,두부,한식,https://place.map.kakao.com/18763274
캠토,패스트푸드,패스트푸드,그외 기타 음식점업,대치동,서울특별시 강남구 도곡로78길 6,37.4977170504442,127.058920252959,0.0,1109.0,토스트,패스트푸드,https://place.map.kakao.com/25970183
일호식당,한식,한식/백반/한정식,한식 음식점업,대치동,서울특별시 강남구 역삼로 459,37.5028312884027,127.057317900582,3.1,537.0,"육류,고기",육류/고기,https://place.map.kakao.com/1981219046
고씨떡볶이,분식,라면김밥분식,분식 및 김밥 전문점,삼성동,서울특별시 강남구 봉은사로84길 34,37.5111566378124,127.0561386319,4.7,416.0,떡볶이,분식,https://place.map.kakao.com/1700890979
경평면옥,한식,냉면집,한식 음식점업,삼성동,서울특별시 강남구 삼성로104길 12,37.5108469651786,127.055724015725,3.5,399.0,냉면,국수,https://place.map.kakao.com/1252572990
죠스떡볶이,분식,떡볶이전문,분식 및 김밥 전문점,대치동,서울특별시 강남구 선릉로64길 5,37.497837889095294,127.052619471603,2.6,1181.0,떡볶이,분식,https://place.map.kakao.com/199323434
티엔티엔티엔,중식,중국음식/중국집,중식 음식점업,삼성동,서울특별시 강남구 테헤란로77길 22,37.5080058117068,127.054244157979,4.0,313.0,퓨전중식,중식,https://place.map.kakao.com/8117380
김밥천국,분식,라면김밥분식,분식 및 김밥 전문점,대치동,서울특별시 강남구 삼성로85길 42,37.5046227559395,127.053732632053,2.3,489.0,분식,분식,https://place.map.kakao.com/16055870
하남돼지집,한식,갈비/삼겹살,한식 음식점업,대치동,서울특별시 강남구 선릉로64길 9,37.4979764793066,127.053047473787,2.4,1153.0,삼겹살,육류/고기,https://place.map.kakao.com/27271736
오감국시,분식,국수/만두/칼국수,분식 및 김밥 전문점,대치동,서울특별시 강남구 테헤란로78길 14-9,37.5049739053172,127.054825303673,3.0,394.0,국수,국수,https://place.map.kakao.com/26647236
둥이,한식,갈비/삼겹살,한식 음식점업,대치동,서울특별시 강남구 삼성로 307,37.4994038322821,127.060278844525,3.8,943.0,냉면,국수,https://place.map.kakao.com/14603182
강남칼국수,분식,국수/만두/칼국수,분식 및 김밥 전문점,삼성동,서울특별시 강남구 영동대로 602,37.5145808720792,127.060688099709,5.0,813.0,국수,국수,https://place.map.kakao.com/18719111
강남목호등대,일식/수산물,횟집,한식 음식점업,삼성동,서울특별시 강남구 삼성로95길 15,37.5077374237006,127.054485070126,4.8,289.0,회,해물/생선,https://place.map.kakao.com/21159398
더그릴앤커리,양식,정통양식/경양식,서양식 음식점업,대치동,서울특별시 강남구 삼성로85길 11,37.5045881509052,127.056164781276,0.0,368.0,양식,양식,https://place.map.kakao.com/564640624
대치닭칼국수,분식,국수/만두/칼국수,분식 및 김밥 전문점,대치동,서울특별시 강남구 역삼로63길 19-10,37.5023778708335,127.051329324465,0.0,816.0,한식,한식,https://place.map.kakao.com/26647236
전주한정식,한식,한정식전문,한식 음식점업,대치동,서울특별시 강남구 선릉로82길 25,37.5030506672959,127.052078585333,4.5,716.0,한식,한식,https://place.map.kakao.com/8978777
두루치기유선생,한식,한식/백반/한정식,한식 음식점업,삼성동,서울특별시 강남구 봉은사로114길 42,37.5121576635909,127.065310913566,1.5,834.0,"불고기,두루치기",육류/고기,https://place.map.kakao.com/1141385651
평안도순대국,별식/퓨전요리,순대전문점,한식 음식점업,대치동,서울특별시 강남구 선릉로90길 38,37.5047374674151,127.052306084963,5.0,580.0,순대,곱창/막창/순대,https://place.map.kakao.com/1655708001
수궁갈비,한식,갈비/삼겹살,한식 음식점업,삼성동,서울특별시 강남구 봉은사로97길 4,37.5142923006748,127.058395429387,2.6,741.0,"찌개,전골",국/탕,https://place.map.kakao.com/16377737
신동궁감자탕뼈숯불구이,한식,해장국/감자탕,한식 음식점업,대치동,서울특별시 강남구 선릉로86길 39,37.5041021363552,127.052857006252,3.6,585.0,감자탕,국/탕,https://place.map.kakao.com/11356521
보리밀,한식,한식/백반/한정식,한식 음식점업,삼성동,서울특별시 강남구 봉은사로108길 3-6,37.514382566632094,127.064084117674,2.8,934.0,한식,한식,https://place.map.kakao.com/16037063
지호한방삼계탕삼성점,닭/오리요리,삼계탕전문,한식 음식점업,삼성동,서울특별시 강남구 영동대로115길 16,37.5145179926578,127.058449152759,2.5,766.0,닭요리,육류/고기,https://place.map.kakao.com/19589343
오성식당,한식,갈비/삼겹살,한식 음식점업,대치동,서울특별시 강남구 삼성로84길 6,37.5051893952398,127.058113908216,4.6,275.0,갈비,육류/고기,https://place.map.kakao.com/1089615299
명가교동,중식,중국음식/중국집,중식 음식점업,대치동,서울특별시 강남구 도곡로63길 12,37.4977889555692,127.054384334893,1.8,1136.0,중화요리,중식,https://place.map.kakao.com/27478221
수궁식당,한식,한식/백반/한정식,한식 음식점업,삼성동,서울특별시 강남구 봉은사로97길 4,37.5142923006748,127.058395429387,2.6,741.0,"찌개,전골",국/탕,https://place.map.kakao.com/16377737
백구분식,분식,라면김밥분식,분식 및 김밥 전문점,대치동,서울특별시 강남구 테헤란로114길 30,37.5077917492503,127.066982795508,0.0,814.0,한식,한식,https://place.map.kakao.com/9017965
용수사,일식/수산물,음식점-일식,일식 음식점업,대치동,서울특별시 강남구 삼성로86길 7,37.505764570423295,127.057925714358,5.0,210.0,일식집,일식/돈까스,https://place.map.kakao.com/8022618
보리밀,한식,한식/백반/한정식,한식 음식점업,삼성동,서울특별시 강남구 봉은사로108길 5,37.51436194776831,127.063756333738,2.8,915.0,한식,한식,https://place.map.kakao.com/16037063
오니기리와이규동,일식/수산물,음식점-일식,일식 음식점업,대치동,서울특별시 강남구 선릉로86길 15,37.5035180984722,127.050817251518,2.0,766.0,퓨전일식,일식/돈까스,https://place.map.kakao.com/13063938
고운님,일식/수산물,수산물전문음식점-종합,한식 음식점업,대치동,서울특별시 강남구 삼성로81길 22,37.5043520020351,127.055930238825,3.8,400.0,"해물,생선",해물/생선,https://place.map.kakao.com/13319991
죠샌드위치삼성2호점,패스트푸드,샌드위치전문점,"피자, 햄버거, 샌드위치 및 유사 음식점업",대치동,서울특별시 강남구 테헤란로82길 11,37.5062251452598,127.058055653055,0.0,160.0,샌드위치,패스트푸드,https://place.map.kakao.com/8085311
선릉떡볶이,분식,라면김밥분식,분식 및 김밥 전문점,대치동,서울특별시 강남구 테헤란로 422,37.5053094289938,127.05284175388,4.5,506.0,떡볶이,분식,https://place.map.kakao.com/1759205817
미웨이,한식,한식/백반/한정식,한식 음식점업,삼성동,서울특별시 강남구 삼성로 517,37.5080786526444,127.055464807235,1.0,208.0,한식,한식,https://place.map.kakao.com/631653074
안동찜닭해물떡찜,한식,한식/백반/한정식,한식 음식점업,삼성동,서울특별시 강남구 영동대로 513,37.5118203253706,127.059139102428,1.9,480.0,닭요리,육류/고기,https://place.map.kakao.com/16586866
쿠사파스타,양식,스파게티전문점,서양식 음식점업,대치동,서울특별시 강남구 삼성로69길 11,37.5015964332017,127.058396551124,5.0,675.0,이탈리안,양식,https://place.map.kakao.com/899973218
옛날한우곱창,한식,한식/백반/한정식,한식 음식점업,삼성동,서울특별시 강남구 삼성로103길 11,37.5101447619275,127.053549814059,4.6,464.0,"곱창,막창",곱창/막창/순대,https://place.map.kakao.com/27309804
예자네밥상,한식,한식/백반/한정식,한식 음식점업,대치동,서울특별시 강남구 테헤란로114길 30,37.5077917492503,127.066982795508,4.6,814.0,한식,한식,https://place.map.kakao.com/27504107
호남식당,한식,한식/백반/한정식,한식 음식점업,대치동,서울특별시 강남구 선릉로68길 12,37.4990285238823,127.052774071075,0.0,1054.0,한식,한식,https://place.map.kakao.com/21297571
고운님한우곱창,한식,한식/백반/한정식,한식 음식점업,대치동,서울특별시 강남구 삼성로81길 22,37.5043520020351,127.055930238825,3.0,400.0,"곱창,막창",곱창/막창/순대,https://place.map.kakao.com/1399800226
화포식당,한식,한식/백반/한정식,한식 음식점업,대치동,서울특별시 강남구 선릉로86길 44-4,37.5038087160793,127.053347050414,3.9,578.0,"육류,고기",육류/고기,https://place.map.kakao.com/763371830
매드포갈릭,양식,패밀리레스토랑,서양식 음식점업,삼성동,서울특별시 강남구 봉은사로 516,37.5132096614596,127.055965726981,4.1,639.0,패밀리레스토랑,양식,https://place.map.kakao.com/2027012003
맥도날드삼성역점,패스트푸드,패스트푸드,그외 기타 음식점업,삼성동,서울특별시 강남구 삼성로92길 29,37.50831223595969,127.058764633486,1.9,115.0,패스트푸드,패스트푸드,https://place.map.kakao.com/18606490
아모제푸드스칼렛테헤란로,양식,정통양식/경양식,서양식 음식점업,대치동,서울특별시 강남구 테헤란로 424,37.5054855075187,127.053450292224,0.0,450.0,패밀리레스토랑,양식,https://place.map.kakao.com/18454240
브라운돈까스,양식,정통양식/경양식,서양식 음식점업,삼성동,서울특별시 강남구 선릉로 520,37.5059594417971,127.048512932932,1.7,837.0,"돈까스,우동",일식/돈까스,https://place.map.kakao.com/1338283409
맛바라기,한식,한식/백반/한정식,한식 음식점업,대치동,서울특별시 강남구 테헤란로 504,37.5066157960883,127.057326866248,5.0,121.0,한식,한식,https://place.map.kakao.com/24941698
강남동태찜,일식/수산물,수산물전문음식점-종합,한식 음식점업,대치동,서울특별시 강남구 삼성로85길 39,37.5042215784262,127.054269276563,4.5,490.0,"해물,생선",해물/생선,https://place.map.kakao.com/1163773154
더덕순대,한식,한식/백반/한정식,한식 음식점업,대치동,서울특별시 강남구 선릉로86길 16-3,37.5031795476382,127.051296560702,5.0,756.0,순대,곱창/막창/순대,https://place.map.kakao.com/27477923
키친바락,일식/수산물,음식점-일식,일식 음식점업,대치동,서울특별시 강남구 삼성로84길 23,37.5058215151578,127.059417982099,4.6,250.0,일식,일식/돈까스,https://place.map.kakao.com/1604213296
지지미,일식/수산물,음식점-일식,일식 음식점업,대치동,서울특별시 강남구 삼성로58길 29,37.4991958020377,127.063583820523,3.1,1071.0,한식,한식,https://place.map.kakao.com/17317783
강남꿀돼지,한식,한식/백반/한정식,한식 음식점업,삼성동,서울특별시 강남구 봉은사로108길 3-14,37.514459034192896,127.064637440369,5.0,970.0,"육류,고기",육류/고기,https://place.map.kakao.com/26816485
전주집,한식,한식/백반/한정식,한식 음식점업,삼성동,서울특별시 강남구 삼성로100길 13,37.5098254691699,127.056438171267,2.2,269.0,"육류,고기",육류/고기,https://place.map.kakao.com/16903839
한국피자헛한티,패스트푸드,피자전문,"피자, 햄버거, 샌드위치 및 유사 음식점업",대치동,서울특별시 강남구 선릉로 340,37.500216191012896,127.051435841576,3.0,997.0,피자,패스트푸드,https://place.map.kakao.com/27227118
미스터순두부,한식,순두부전문,한식 음식점업,삼성동,서울특별시 강남구 영동대로 511,37.5103484923478,127.061012608393,1.8,415.0,두부,한식,https://place.map.kakao.com/13302685
포메인,별식/퓨전요리,동남아음식전문점,기타 외국식 음식점업,삼성동,서울특별시 강남구 영동대로 513,37.5102300305658,127.058582195981,2.0,296.0,동남아음식,아시아음식,https://place.map.kakao.com/8131356
스시타,일식/수산물,음식점-초밥전문,일식 음식점업,삼성동,서울특별시 강남구 삼성로119길 8,37.5162393367391,127.050610900388,5.0,1145.0,일식,일식/돈까스,https://place.map.kakao.com/2046454327
왕푸징마라탕,중식,중국음식/중국집,중식 음식점업,삼성동,서울특별시 강남구 테헤란로 517,37.5086083814458,127.05974496335,3.4,205.0,중식,중식,https://place.map.kakao.com/457062631
오도루,일식/수산물,음식점-일식,일식 음식점업,대치동,서울특별시 강남구 삼성로58길 39,37.4994544349864,127.064383566909,3.1,1082.0,"초밥,롤",일식/돈까스,https://place.map.kakao.com/19031133
뮤즈,양식,정통양식/경양식,서양식 음식점업,삼성동,서울특별시 강남구 테헤란로83길 41,37.510033594489,127.05654866251,0.0,286.0,양식,양식,https://place.map.kakao.com/901723734
비빔밥,한식,돌솥/비빕밥전문점,한식 음식점업,대치동,서울특별시 강남구 삼성로 212,37.4996105819766,127.065897098053,4.6,1146.0,"육류,고기",육류/고기,https://place.map.kakao.com/16056083
사리원,한식,한식/백반/한정식,한식 음식점업,삼성동,서울특별시 강남구 영동대로 513,37.5118203253706,127.059139102428,2.5,480.0,"불고기,두루치기",육류/고기,https://place.map.kakao.com/1518789176
한죽,한식,한식/백반/한정식,한식 음식점업,대치동,서울특별시 강남구 선릉로86길 42,37.503941866680094,127.053096544972,5.0,582.0,삼계탕,국/탕,https://place.map.kakao.com/23104907
싸리골,한식,한식/백반/한정식,한식 음식점업,대치동,서울특별시 강남구 선릉로86길 24,37.50346193408409,127.051677531484,2.7,710.0,한식,한식,https://place.map.kakao.com/11112888
튀김아저씨,분식,라면김밥분식,분식 및 김밥 전문점,대치동,서울특별시 강남구 삼성로 212,37.4996105819766,127.065897098053,4.3,1146.0,분식,분식,https://place.map.kakao.com/2116206652
둘둘치킨,닭/오리요리,후라이드/양념치킨,치킨 전문점,삼성동,서울특별시 강남구 테헤란로69길 9,37.506503266843296,127.052272452298,1.5,501.0,치킨,치킨,https://place.map.kakao.com/7861733
비사벌전주콩나물국밥,한식,한식/백반/한정식,한식 음식점업,대치동,서울특별시 강남구 도곡로 440,37.497876881986095,127.058624205858,5.0,1089.0,"찌개,전골",국/탕,https://place.map.kakao.com/27109342
한솥,패스트푸드,도시락전문점,한식 음식점업,대치동,서울특별시 강남구 선릉로90길 56,37.5050715168437,127.053512070975,2.3,472.0,도시락,패스트푸드,https://place.map.kakao.com/17019416
둘둘치킨,닭/오리요리,후라이드/양념치킨,치킨 전문점,대치동,서울특별시 강남구 도곡로63길 12,37.4977889555692,127.054384334893,1.0,1136.0,치킨,치킨,https://place.map.kakao.com/7861733
삼성국수,분식,국수/만두/칼국수,분식 및 김밥 전문점,삼성동,서울특별시 강남구 영동대로 611,37.51471467511929,127.059385563017,2.8,799.0,국수,국수,https://place.map.kakao.com/7928439
홍운장,중식,중국음식/중국집,중식 음식점업,대치동,서울특별시 강남구 삼성로 341,37.5018797881823,127.058901937518,3.3,649.0,중화요리,중식,https://place.map.kakao.com/10970806
KFC,닭/오리요리,후라이드/양념치킨,치킨 전문점,삼성동,서울특별시 강남구 봉은사로 449,37.5119806977954,127.04878715339,1.4,927.0,패스트푸드,패스트푸드,https://place.map.kakao.com/26901141
최고야,한식,한식/백반/한정식,한식 음식점업,삼성동,서울특별시 강남구 삼성로100길 23-2,37.510166501776,127.057395324706,4.0,282.0,닭요리,육류/고기,https://place.map.kakao.com/488130627
의정부부대찌개,한식,부대찌개/섞어찌개,한식 음식점업,삼성동,서울특별시 강남구 영동대로106길 38,37.51395982950329,127.064179890475,1.0,902.0,"찌개,전골",국/탕,https://place.map.kakao.com/11180084
먹쇠네,분식,라면김밥분식,분식 및 김밥 전문점,대치동,서울특별시 강남구 영동대로86길 10-7,37.507415801992494,127.065019408228,0.0,641.0,한식,한식,https://place.map.kakao.com/16061958
신흥식당,한식,한식/백반/한정식,한식 음식점업,대치동,서울특별시 강남구 역삼로 406,37.5006053310786,127.051645802823,3.4,951.0,"육류,고기",육류/고기,https://place.map.kakao.com/750570756
크레이지후라이,분식,라면김밥분식,분식 및 김밥 전문점,대치동,서울특별시 강남구 테헤란로78길 16,37.5050499630967,127.05532200064,4.0,360.0,떡볶이,분식,https://place.map.kakao.com/1532100025
나능이능이버섯백숙,한식,한식/백반/한정식,한식 음식점업,대치동,서울특별시 강남구 삼성로75길 32-11,37.503633548026,127.05510233476,4.4,504.0,닭요리,육류/고기,https://place.map.kakao.com/1039621367
외고집설렁탕,한식,설렁탕집,한식 음식점업,삼성동,서울특별시 강남구 삼성로 555,37.511012496208,127.053889506251,3.2,507.0,설렁탕,국/탕,https://place.map.kakao.com/8024422
참치공방,일식/수산물,참치전문점,일식 음식점업,대치동,서울특별시 강남구 삼성로85길 39,37.5042305880772,127.054269162912,3.6,489.0,일식,일식/돈까스,https://place.map.kakao.com/913979606
싸리골빈대떡파전,한식,파전전문,한식 음식점업,대치동,서울특별시 강남구 선릉로86길 24,37.50346193408409,127.051677531484,2.7,710.0,한식,한식,https://place.map.kakao.com/21414108
대원정,한식,한식/백반/한정식,한식 음식점업,삼성동,서울특별시 강남구 테헤란로77길 17,37.5074824372614,127.054148964473,2.0,319.0,한식,한식,https://place.map.kakao.com/1754167147
마라전설마라탕,중식,중국음식/중국집,중식 음식점업,대치동,서울특별시 강남구 영동대로85길 30,37.50680796493,127.061090889254,3.3,308.0,중화요리,중식,https://place.map.kakao.com/843620132
국수마을,한식,한식/백반/한정식,한식 음식점업,삼성동,서울특별시 강남구 봉은사로114길 42,37.5121576635909,127.065310913566,0.0,834.0,국수,국수,https://place.map.kakao.com/26431972
카발,양식,정통양식/경양식,서양식 음식점업,대치동,서울특별시 강남구 선릉로82길 7,37.5026700105716,127.050680958202,3.7,834.0,이탈리안,양식,https://place.map.kakao.com/27189274
한솥도시락,패스트푸드,도시락전문점,한식 음식점업,대치동,서울특별시 강남구 선릉로86길 7,37.5032886761775,127.050299891841,2.3,817.0,도시락,패스트푸드,https://place.map.kakao.com/17019416
해장옥,한식,설렁탕집,한식 음식점업,대치동,서울특별시 강남구 선릉로86길 37,37.504100503981,127.052653443004,3.0,599.0,국밥,국/탕,https://place.map.kakao.com/2044481021
두꺼비식당,한식,한식/백반/한정식,한식 음식점업,대치동,서울특별시 강남구 역삼로 421,37.5014547499448,127.053071405956,3.4,803.0,"육류,고기",육류/고기,https://place.map.kakao.com/11891898
밥드림,한식,한식/백반/한정식,한식 음식점업,삼성동,서울특별시 강남구 봉은사로84길 11,37.5125777208538,127.05581532572,5.0,575.0,한식,한식,https://place.map.kakao.com/756760966
네모오징어,한식,한식/백반/한정식,한식 음식점업,삼성동,서울특별시 강남구 테헤란로77길 17,37.5074824372614,127.054148964473,3.7,319.0,"해물,생선",해물/생선,https://place.map.kakao.com/1083305339
원조을지로골뱅이,한식,한식/백반/한정식,한식 음식점업,삼성동,서울특별시 강남구 삼성로100길 23-20,37.5107241974196,127.057275199192,0.0,345.0,한식,한식,https://place.map.kakao.com/7871114
병천순대,별식/퓨전요리,순대전문점,한식 음식점업,대치동,서울특별시 강남구 선릉로90길 70,37.50548781738,127.054864066254,3.0,351.0,순대,곱창/막창/순대,https://place.map.kakao.com/10385661
빕스,양식,패밀리레스토랑,서양식 음식점업,삼성동,서울특별시 강남구 영동대로 513,37.5118203253706,127.059139102428,2.0,480.0,패밀리레스토랑,양식,https://place.map.kakao.com/1873352650
투뿔등심고담삼성점,한식,갈비/삼겹살,한식 음식점업,삼성동,서울특별시 강남구 테헤란로87길 33,37.5098191857712,127.057908690998,2.8,242.0,"육류,고기",육류/고기,https://place.map.kakao.com/27348924
일일향,한식,한식/백반/한정식,한식 음식점업,삼성동,서울특별시 강남구 봉은사로 620,37.5144929673668,127.06323435452,3.7,901.0,중화요리,중식,https://place.map.kakao.com/954098848
만래옥,한식,갈비/삼겹살,한식 음식점업,대치동,서울특별시 강남구 테헤란로88길 22,37.506159733987694,127.060024507341,3.5,259.0,"육류,고기",육류/고기,https://place.map.kakao.com/19767545
여신김밥,분식,라면김밥분식,분식 및 김밥 전문점,대치동,서울특별시 강남구 선릉로90길 70,37.50548781738,127.054864066254,4.0,351.0,분식,분식,https://place.map.kakao.com/13323701
참나무바베큐,양식,정통양식/경양식,서양식 음식점업,삼성동,서울특별시 강남구 삼성로91길 30,37.5067129941236,127.053706248301,0.0,372.0,"육류,고기",육류/고기,https://place.map.kakao.com/21698697
뜸들이다,한식,한식/백반/한정식,한식 음식점업,대치동,서울특별시 강남구 삼성로 238,37.4986287111494,127.061385569605,0.0,1053.0,한식,한식,https://place.map.kakao.com/358869988
에그드랍,패스트푸드,샌드위치전문점,"피자, 햄버거, 샌드위치 및 유사 음식점업",대치동,서울특별시 강남구 삼성로85길 11,37.5045881509052,127.056164781276,5.0,368.0,샌드위치,패스트푸드,https://place.map.kakao.com/1272238997
직화한상스타필드,한식,한식/백반/한정식,한식 음식점업,삼성동,서울특별시 강남구 영동대로 513,37.5118203253706,127.059139102428,0.0,480.0,한식,한식,https://place.map.kakao.com/257941304
긴자카레,일식/수산물,음식점-일식,일식 음식점업,대치동,서울특별시 강남구 역삼로 406,37.5006053310786,127.051645802823,4.7,951.0,일식,일식/돈까스,https://place.map.kakao.com/1234400636
돈그리아,한식,기타고기요리,한식 음식점업,대치동,서울특별시 강남구 선릉로86길 6-5,37.5027956911556,127.050622816807,3.6,829.0,"육류,고기",육류/고기,https://place.map.kakao.com/20702726
스시한판,일식/수산물,음식점-초밥전문,일식 음식점업,삼성동,서울특별시 강남구 영동대로 513,37.51293939692889,127.057100286394,1.8,591.0,"초밥,롤",일식/돈까스,https://place.map.kakao.com/23686684
제이제이홈,한식,한식/백반/한정식,한식 음식점업,대치동,서울특별시 강남구 영동대로 424,37.5074924116854,127.064452915868,3.5,590.0,한식,한식,https://place.map.kakao.com/19838635
스시애,일식/수산물,음식점-초밥전문,일식 음식점업,대치동,서울특별시 강남구 선릉로64길 7,37.4979479998461,127.052866884829,2.5,1162.0,"초밥,롤",일식/돈까스,https://place.map.kakao.com/24876140
배가무닭볶음탕,일식/수산물,음식점-일식,일식 음식점업,대치동,서울특별시 강남구 선릉로86길 30,37.5036282828868,127.052195693976,4.7,664.0,닭요리,육류/고기,https://place.map.kakao.com/733513512
소소한식당,한식,한식/백반/한정식,한식 음식점업,대치동,서울특별시 강남구 삼성로 319,37.5003458886534,127.059769413585,4.0,831.0,일식집,일식/돈까스,https://place.map.kakao.com/1451512459
깐부치킨,닭/오리요리,후라이드/양념치킨,치킨 전문점,삼성동,서울특별시 강남구 봉은사로 629,37.5151671240436,127.064164815065,2.6,1009.0,치킨,치킨,https://place.map.kakao.com/22134227
바오바오,중식,중국음식/중국집,중식 음식점업,삼성동,서울특별시 강남구 봉은사로 516,37.5132096614596,127.055965726981,5.0,639.0,중화요리,중식,https://place.map.kakao.com/26353603
삼원가든,한식,기타고기요리,한식 음식점업,삼성동,서울특별시 강남구 봉은사로 620,37.5144929673668,127.06323435452,3.2,901.0,"육류,고기",육류/고기,https://place.map.kakao.com/19351143
본도시락대치은마점,패스트푸드,도시락전문점,한식 음식점업,대치동,서울특별시 강남구 도곡로 521,37.5000129036481,127.063223018663,0.0,976.0,도시락,패스트푸드,https://place.map.kakao.com/17904733
마초야,양식,돈가스전문점,서양식 음식점업,대치동,서울특별시 강남구 역삼로64길 18,37.4998865263604,127.053023352934,3.4,959.0,"돈까스,우동",일식/돈까스,https://place.map.kakao.com/27444612
강릉집,일식/수산물,수산물전문음식점-종합,한식 음식점업,대치동,서울특별시 강남구 도곡로63길 23,37.4984147421243,127.053765738322,5.0,1085.0,"해물,생선",해물/생선,https://place.map.kakao.com/13290566
중앙해장,한식,해장국/감자탕,한식 음식점업,대치동,서울특별시 강남구 영동대로86길 17,37.5082753009988,127.065461122209,4.0,683.0,해장국,국/탕,https://place.map.kakao.com/27531028
깐부치킨,닭/오리요리,후라이드/양념치킨,치킨 전문점,대치동,서울특별시 강남구 삼성로 345,37.5022927010462,127.058704485683,3.0,601.0,치킨,치킨,https://place.map.kakao.com/22134227
경복궁블랙,한식,한식/백반/한정식,한식 음식점업,삼성동,서울특별시 강남구 영동대로 513,37.5118203253706,127.059139102428,4.0,480.0,한정식,한식,https://place.map.kakao.com/1058687312
마실,한식,족발/보쌈전문,한식 음식점업,대치동,서울특별시 강남구 선릉로64길 15-11,37.4987519443116,127.053116847033,5.0,1071.0,"족발,보쌈",육류/고기,https://place.map.kakao.com/486623626
신한국촌,한식,기타고기요리,한식 음식점업,대치동,서울특별시 강남구 영동대로85길 17,37.50687136615969,127.062266401817,1.0,407.0,"육류,고기",육류/고기,https://place.map.kakao.com/11752330
향로식당,한식,한식/백반/한정식,한식 음식점업,대치동,서울특별시 강남구 삼성로84길 29,37.5059878303927,127.059936178693,5.0,266.0,한식,한식,https://place.map.kakao.com/23768668
서울덮밥,한식,한식/백반/한정식,한식 음식점업,삼성동,서울특별시 강남구 영동대로 513,37.5118203253706,127.059139102428,3.5,480.0,한식,한식,https://place.map.kakao.com/21310899
가야한식,한식,한식/백반/한정식,한식 음식점업,삼성동,서울특별시 강남구 선릉로 514,37.5055951465088,127.049150940996,5.0,793.0,"찌개,전골",국/탕,https://place.map.kakao.com/21356275
뽕나무쟁이,한식,족발/보쌈전문,한식 음식점업,대치동,서울특별시 강남구 역삼로65길 33,37.50334671502151,127.051916500948,4.0,703.0,"족발,보쌈",육류/고기,https://place.map.kakao.com/11190567
스낵코너,분식,스낵,분식 및 김밥 전문점,삼성동,서울특별시 강남구 봉은사로114길 43,37.5130241359243,127.066634873474,0.0,985.0,분식,분식,https://place.map.kakao.com/10689221
수림복국,일식/수산물,복전문,한식 음식점업,삼성동,서울특별시 강남구 테헤란로77길 11-13,37.506783077783,127.05345652998,4.3,392.0,복어,해물/생선,https://place.map.kakao.com/17154422
한성양갈비구이,한식,갈비/삼겹살,한식 음식점업,대치동,서울특별시 강남구 삼성로81길 36,37.5039178755402,127.054601103032,4.6,500.0,갈비,육류/고기,https://place.map.kakao.com/15183799
죠샌드위치,패스트푸드,샌드위치전문점,"피자, 햄버거, 샌드위치 및 유사 음식점업",대치동,서울특별시 강남구 삼성로 345,37.5022927010462,127.058704485683,3.7,601.0,샌드위치,패스트푸드,https://place.map.kakao.com/8085311
세이로켄마,한식,한식/백반/한정식,한식 음식점업,삼성동,서울특별시 강남구 테헤란로81길 48,37.5098502391093,127.056155082319,4.0,283.0,일식,일식/돈까스,https://place.map.kakao.com/2011485878
이화수육개장,한식,한식/백반/한정식,한식 음식점업,대치동,서울특별시 강남구 테헤란로86길 16,37.506314974996094,127.059151648115,3.2,192.0,국밥,국/탕,https://place.map.kakao.com/26500318
원조감자탕일미집,한식,해장국/감자탕,한식 음식점업,삼성동,서울특별시 강남구 테헤란로77길 11-8,37.5071643823693,127.053813657136,3.0,352.0,감자탕,국/탕,https://place.map.kakao.com/1650126753
얌샘김밥,분식,라면김밥분식,분식 및 김밥 전문점,대치동,서울특별시 강남구 테헤란로104길 12,37.50826208459151,127.064929676858,1.3,636.0,분식,분식,https://place.map.kakao.com/743700217
바스버거선릉점,패스트푸드,패스트푸드,"피자, 햄버거, 샌드위치 및 유사 음식점업",대치동,서울특별시 강남구 삼성로85길 39,37.5042305880772,127.054269162912,3.5,489.0,햄버거,패스트푸드,https://place.map.kakao.com/1711185712
켄마,한식,기타고기요리,한식 음식점업,삼성동,서울특별시 강남구 삼성로108길 18,37.5120269572326,127.055675215523,4.6,521.0,"육류,고기",육류/고기,https://place.map.kakao.com/18590053
삼성동보쌈,한식,족발/보쌈전문,한식 음식점업,삼성동,서울특별시 강남구 삼성로111길 7,37.51325447946169,127.052560371492,0.0,774.0,"족발,보쌈",육류/고기,https://place.map.kakao.com/27361437
꽃보다등심,일식/수산물,음식점-일식,일식 음식점업,삼성동,서울특별시 강남구 테헤란로77길 23,37.5078503835892,127.053963349369,3.0,336.0,"육류,고기",육류/고기,https://place.map.kakao.com/1417876899
동경,양식,돈가스전문점,서양식 음식점업,삼성동,서울특별시 강남구 영동대로 513,37.5118203253706,127.059139102428,1.2,480.0,일식,일식/돈까스,https://place.map.kakao.com/16986529
온드린,한식,한식/백반/한정식,한식 음식점업,삼성동,서울특별시 강남구 테헤란로 517,37.5086083814458,127.05974496335,0.0,205.0,한식,한식,https://place.map.kakao.com/21542980
참치그라,일식/수산물,참치전문점,일식 음식점업,대치동,서울특별시 강남구 선릉로82길 40-3,37.5031799435509,127.053592501087,3.9,618.0,참치회,해물/생선,https://place.map.kakao.com/10770221
강정이기가막혀,닭/오리요리,후라이드/양념치킨,치킨 전문점,대치동,서울특별시 강남구 선릉로76길 7,37.5015291474615,127.051113866405,1.0,898.0,닭강정,치킨,https://place.map.kakao.com/24635301
오발탄,한식,한식/백반/한정식,한식 음식점업,삼성동,서울특별시 강남구 삼성로 606,37.5136667143351,127.053403534679,4.2,772.0,"곱창,막창",곱창/막창/순대,https://place.map.kakao.com/1456391705
송탄부대찌개,한식,부대찌개/섞어찌개,한식 음식점업,대치동,서울특별시 강남구 선릉로86길 38,37.5037949921976,127.052759094902,3.0,615.0,"찌개,전골",국/탕,https://place.map.kakao.com/9955042
온새미로,한식,한식/백반/한정식,한식 음식점업,대치동,서울특별시 강남구 삼성로85길 42,37.5046227559395,127.053732632053,4.9,489.0,갈비,육류/고기,https://place.map.kakao.com/2062240208
이레샌드위치,패스트푸드,패스트푸드,그외 기타 음식점업,삼성동,서울특별시 강남구 영동대로96길 37,37.5116636532106,127.065509367365,0.0,816.0,샌드위치,패스트푸드,https://place.map.kakao.com/26495041
충무김밥,분식,라면김밥분식,분식 및 김밥 전문점,대치동,서울특별시 강남구 역삼로63길 20,37.5024295460819,127.052154297857,0.0,762.0,분식,분식,https://place.map.kakao.com/23825025
신불떡볶이,분식,라면김밥분식,분식 및 김밥 전문점,삼성동,서울특별시 강남구 봉은사로103길 6,37.5150038564702,127.061757425653,5.0,891.0,떡볶이,분식,https://place.map.kakao.com/767203626
스시츠카무,일식/수산물,음식점-일식,일식 음식점업,삼성동,서울특별시 강남구 테헤란로 521,37.50918435794689,127.060789660534,3.4,317.0,"초밥,롤",일식/돈까스,https://place.map.kakao.com/1218133003
매운국물떡볶이밀방떡,분식,라면김밥분식,분식 및 김밥 전문점,대치동,서울특별시 강남구 선릉로 334,37.499577867777695,127.051613559422,4.0,1048.0,떡볶이,분식,https://place.map.kakao.com/1629292463
일일향,중식,중국음식/중국집,중식 음식점업,삼성동,서울특별시 강남구 테헤란로83길 20,37.508789739738894,127.057627545023,3.7,128.0,중화요리,중식,https://place.map.kakao.com/954098848
유키즈시,일식/수산물,음식점-일식,일식 음식점업,대치동,서울특별시 강남구 영동대로86길 17,37.5082753009988,127.065461122209,4.1,683.0,일식집,일식/돈까스,https://place.map.kakao.com/472689965
동래복국,일식/수산물,복전문,한식 음식점업,대치동,서울특별시 강남구 테헤란로84길 13,37.5063392109859,127.058800716647,3.6,172.0,복어,해물/생선,https://place.map.kakao.com/7844122
본죽&비빔밥CAFE,한식,돌솥/비빕밥전문점,한식 음식점업,대치동,서울특별시 강남구 테헤란로88길 10,37.50683996708,127.059450446397,3.0,174.0,죽,한식,https://place.map.kakao.com/16904610
버닝스톤,양식,스테이크전문점,서양식 음식점업,대치동,서울특별시 강남구 역삼로64길 7,37.5006161270084,127.052991519258,4.8,888.0,"스테이크,립",양식,https://place.map.kakao.com/22378889
국시랑만두,분식,국수/만두/칼국수,분식 및 김밥 전문점,삼성동,서울특별시 강남구 삼성로91길 30,37.5067129941236,127.053706248301,0.0,372.0,국수,국수,https://place.map.kakao.com/594487054
매드포갈릭,양식,패밀리레스토랑,서양식 음식점업,삼성동,서울특별시 강남구 영동대로 520,37.5136291761859,127.061118558878,4.1,728.0,패밀리레스토랑,양식,https://place.map.kakao.com/2027012003
연타발,한식,곱창/양구이전문,한식 음식점업,대치동,서울특별시 강남구 테헤란로 428,37.5056790588235,127.053990750252,3.5,398.0,"곱창,막창",곱창/막창/순대,https://place.map.kakao.com/1854560977
족발의달인,한식,족발/보쌈전문,한식 음식점업,대치동,서울특별시 강남구 도곡로 516,37.499172940488,127.062973394068,1.0,1048.0,"족발,보쌈",육류/고기,https://place.map.kakao.com/1882273179
번패티번,패스트푸드,패스트푸드,그외 기타 음식점업,삼성동,서울특별시 강남구 테헤란로 517,37.5086083814458,127.05974496335,2.5,205.0,햄버거,패스트푸드,https://place.map.kakao.com/486200466
뽀모도로스파게티,양식,스파게티전문점,서양식 음식점업,삼성동,서울특별시 강남구 영동대로 513,37.5118203253706,127.059139102428,2.0,480.0,이탈리안,양식,https://place.map.kakao.com/9803208
간코블랙,일식/수산물,음식점-일식,일식 음식점업,삼성동,서울특별시 강남구 테헤란로 517,37.5086083814458,127.05974496335,3.0,205.0,"돈까스,우동",일식/돈까스,https://place.map.kakao.com/1369746279
청화당,중식,중국음식/중국집,중식 음식점업,대치동,서울특별시 강남구 테헤란로78길 16,37.5050499630967,127.05532200064,3.0,360.0,중화요리,중식,https://place.map.kakao.com/324945437
교대밀밭,분식,국수/만두/칼국수,분식 및 김밥 전문점,대치동,서울특별시 강남구 영동대로85길 9,37.5070834352286,127.062874525423,3.7,455.0,국수,국수,https://place.map.kakao.com/1688551756
정통원조한방삼계탕찜닭,닭/오리요리,삼계탕전문,한식 음식점업,대치동,서울특별시 강남구 테헤란로68길 25,37.5036333626325,127.052828997841,2.6,623.0,삼계탕,국/탕,https://place.map.kakao.com/13302145
푸라닭치킨,닭/오리요리,후라이드/양념치킨,치킨 전문점,대치동,서울특별시 강남구 역삼로 433,37.5018433922011,127.054344513616,3.1,712.0,치킨,치킨,https://place.map.kakao.com/298645004
닭스,닭/오리요리,후라이드/양념치킨,치킨 전문점,대치동,서울특별시 강남구 테헤란로64길 9,37.5044880347843,127.051540139422,0.0,652.0,치킨,치킨,https://place.map.kakao.com/10256888
죠스떡볶이,분식,라면김밥분식,분식 및 김밥 전문점,대치동,서울특별시 강남구 도곡로 510,37.4990133147849,127.06216110792,2.6,1035.0,떡볶이,분식,https://place.map.kakao.com/199323434
책갈피,패스트푸드,패스트푸드,그외 기타 음식점업,대치동,서울특별시 강남구 삼성로81길 6,37.504766469623,127.057056051551,0.0,326.0,패스트푸드,패스트푸드,https://place.map.kakao.com/21535040
신촌,분식,라면김밥분식,분식 및 김밥 전문점,삼성동,서울특별시 강남구 봉은사로82길 25,37.5116101622976,127.055386371622,0.0,488.0,떡볶이,분식,https://place.map.kakao.com/26967050
남원추어탕,한식,한식/백반/한정식,한식 음식점업,대치동,서울특별시 강남구 도곡로 440,37.497876881986095,127.058624205858,0.0,1089.0,추어탕,국/탕,https://place.map.kakao.com/8878866
쌀통닭,닭/오리요리,후라이드/양념치킨,치킨 전문점,대치동,서울특별시 강남구 도곡로99길 16,37.5018369581587,127.065993770919,4.0,972.0,치킨,치킨,https://place.map.kakao.com/24195658
신차이,중식,중국음식/중국집,중식 음식점업,삼성동,서울특별시 강남구 테헤란로 517,37.5086083814458,127.05974496335,5.0,205.0,중화요리,중식,https://place.map.kakao.com/1654913818
구구족,한식,한식/백반/한정식,한식 음식점업,대치동,서울특별시 강남구 도곡로 510,37.4990133147849,127.06216110792,4.5,1035.0,"족발,보쌈",육류/고기,https://place.map.kakao.com/1659804607
닐리파스타,양식,정통양식/경양식,서양식 음식점업,대치동,서울특별시 강남구 도곡로63길 23,37.4984147421243,127.053765738322,3.4,1085.0,이탈리안,양식,https://place.map.kakao.com/13127598
도미노피자,패스트푸드,피자전문,"피자, 햄버거, 샌드위치 및 유사 음식점업",삼성동,서울특별시 강남구 봉은사로 451,37.5120363948748,127.048990051903,1.5,915.0,피자,패스트푸드,https://place.map.kakao.com/8258708
국고집,한식,기타고기요리,한식 음식점업,대치동,서울특별시 강남구 선릉로86길 30,37.5036282828868,127.052195693976,3.0,664.0,"육류,고기",육류/고기,https://place.map.kakao.com/1292909425
제주생선구이올래밥상삼성,일식/수산물,갈치/생선구이,한식 음식점업,삼성동,서울특별시 강남구 봉은사로 466,37.5119597642227,127.050665111224,5.0,789.0,"해물,생선",해물/생선,https://place.map.kakao.com/506084756
파리스치킨,닭/오리요리,후라이드/양념치킨,치킨 전문점,삼성동,서울특별시 강남구 삼성로103길 23,37.5098680357675,127.052750221078,0.0,506.0,치킨,치킨,https://place.map.kakao.com/19358658
종로김밥,분식,라면김밥분식,분식 및 김밥 전문점,삼성동,서울특별시 강남구 테헤란로107길 11,37.5104254799265,127.065038423419,2.3,712.0,분식,분식,https://place.map.kakao.com/16269694
오복냉면,한식,냉면집,한식 음식점업,대치동,서울특별시 강남구 선릉로76길 21,37.50184391891631,127.05216170111,0.0,813.0,냉면,국수,https://place.map.kakao.com/16764731
나주본가설렁탕,한식,설렁탕집,한식 음식점업,삼성동,서울특별시 강남구 삼성로103길 6,37.5105089528091,127.054020285185,1.0,458.0,설렁탕,국/탕,https://place.map.kakao.com/18601941
보영만두,분식,국수/만두/칼국수,분식 및 김밥 전문점,대치동,서울특별시 강남구 삼성로85길 42,37.5046227559395,127.053732632053,4.0,489.0,분식,분식,https://place.map.kakao.com/1324632572
강정희간장새우,일식/수산물,음식점-일식,일식 음식점업,대치동,서울특별시 강남구 역삼로63길 22,37.5025733374752,127.052107240138,4.5,753.0,"해물,생선",해물/생선,https://place.map.kakao.com/27228484
담뿍화로된장,한식,한식/백반/한정식,한식 음식점업,대치동,서울특별시 강남구 테헤란로78길 14-15,37.504862259539294,127.054385608291,4.0,430.0,"찌개,전골",국/탕,https://place.map.kakao.com/1606488535
판동면옥,한식,냉면집,한식 음식점업,대치동,서울특별시 강남구 역삼로77길 5,37.5028412713531,127.056311182533,4.0,549.0,냉면,국수,https://place.map.kakao.com/60793014
메밀연가,분식,우동전문점,분식 및 김밥 전문점,대치동,서울특별시 강남구 선릉로62길 37,37.4982112711086,127.055362921044,2.9,1070.0,국수,국수,https://place.map.kakao.com/26845505
행복한밥상,한식,한식/백반/한정식,한식 음식점업,대치동,서울특별시 강남구 선릉로64길 12,37.4977889985827,127.053264717246,3.0,1166.0,한식,한식,https://place.map.kakao.com/19015693
한와담,한식,한식/백반/한정식,한식 음식점업,대치동,서울특별시 강남구 테헤란로 440,37.505804183147696,127.056115540456,2.5,251.0,"육류,고기",육류/고기,https://place.map.kakao.com/1467994271
스시로,일식/수산물,음식점-초밥전문,일식 음식점업,삼성동,서울특별시 강남구 테헤란로87길 58,37.5120056433882,127.057519244112,3.7,485.0,일식,일식/돈까스,https://place.map.kakao.com/1041620085
쿠모식당,한식,한식/백반/한정식,한식 음식점업,삼성동,서울특별시 강남구 영동대로 513,37.5118203253706,127.059139102428,0.0,480.0,"돈까스,우동",일식/돈까스,https://place.map.kakao.com/48198403
서울스낵,분식,라면김밥분식,분식 및 김밥 전문점,삼성동,서울특별시 강남구 영동대로 513,37.5118203253706,127.059139102428,0.0,480.0,분식,분식,https://place.map.kakao.com/587857582
자매분식,분식,라면김밥분식,분식 및 김밥 전문점,삼성동,서울특별시 강남구 삼성로103길 12,37.510386662713,127.053377092173,5.0,492.0,분식,분식,https://place.map.kakao.com/2027235315
이베리코,한식,한식/백반/한정식,한식 음식점업,삼성동,서울특별시 강남구 영동대로106길 11,37.513573477254496,127.062046812118,3.4,760.0,"육류,고기",육류/고기,https://place.map.kakao.com/258094960
스시노스시,일식/수산물,음식점-초밥전문,일식 음식점업,대치동,서울특별시 강남구 역삼로 413,37.5011863052268,127.052181323904,4.3,871.0,"초밥,롤",일식/돈까스,https://place.map.kakao.com/586069631
코벤트가든,양식,정통양식/경양식,서양식 음식점업,대치동,서울특별시 강남구 선릉로 410,37.5015614607229,127.05064975443,3.2,923.0,이탈리안,양식,https://place.map.kakao.com/12819847
고운님,한식,한식/백반/한정식,한식 음식점업,삼성동,서울특별시 강남구 영동대로 513,37.5118203253706,127.059139102428,3.9,480.0,한정식,한식,https://place.map.kakao.com/13319991
노포식당,한식,곱창/양구이전문,한식 음식점업,대치동,서울특별시 강남구 선릉로86길 24,37.50346193408409,127.051677531484,4.0,710.0,"곱창,막창",곱창/막창/순대,https://place.map.kakao.com/1897048961
차이나팩토리익스프레스,중식,중국음식/중국집,중식 음식점업,삼성동,서울특별시 강남구 영동대로 513,37.5118203253706,127.059139102428,2.5,480.0,중화요리,중식,https://place.map.kakao.com/1075240989
불이아,중식,중국음식/중국집,중식 음식점업,삼성동,서울특별시 강남구 테헤란로87길 55,37.5111744090288,127.057235602853,4.5,395.0,중식,중식,https://place.map.kakao.com/1528769880
명동피자,패스트푸드,피자전문,"피자, 햄버거, 샌드위치 및 유사 음식점업",대치동,서울특별시 강남구 역삼로63길 6,37.501577076726896,127.052594848035,2.9,814.0,피자,패스트푸드,https://place.map.kakao.com/2049045467
거자필반,일식/수산물,해물찜/탕전문,한식 음식점업,대치동,서울특별시 강남구 테헤란로108길 8,37.5088265910197,127.065669157082,4.0,710.0,곰탕,국/탕,https://place.map.kakao.com/1950688785
마왕족발,한식,족발/보쌈전문,한식 음식점업,대치동,서울특별시 강남구 도곡로 516,37.499172940488,127.062973394068,3.4,1048.0,"족발,보쌈",육류/고기,https://place.map.kakao.com/27361437
가츠오,양식,돈가스전문점,서양식 음식점업,대치동,서울특별시 강남구 도곡로63길 31,37.4989888235552,127.053441829766,4.7,1035.0,"돈까스,우동",일식/돈까스,https://place.map.kakao.com/714071938
이태리부대찌개,한식,부대찌개/섞어찌개,한식 음식점업,대치동,서울특별시 강남구 영동대로86길 28,37.50824704291809,127.066445518618,4.2,769.0,"찌개,전골",국/탕,https://place.map.kakao.com/90620451
서울밥상,분식,라면김밥분식,분식 및 김밥 전문점,삼성동,서울특별시 강남구 봉은사로 608-10,37.5136591714657,127.061491468063,3.0,745.0,"육류,고기",육류/고기,https://place.map.kakao.com/16983812
남포동수제비,분식,라면김밥분식,분식 및 김밥 전문점,삼성동,서울특별시 강남구 영동대로 513,37.5118203253706,127.059139102428,2.0,480.0,수제비,한식,https://place.map.kakao.com/903167940
싸다김밥,분식,라면김밥분식,분식 및 김밥 전문점,대치동,서울특별시 강남구 도곡로 440,37.497876881986095,127.058624205858,1.5,1089.0,분식,분식,https://place.map.kakao.com/1569358032
마미치킨,닭/오리요리,후라이드/양념치킨,치킨 전문점,대치동,서울특별시 강남구 삼성로 212,37.4996105819766,127.065897098053,3.7,1146.0,치킨,치킨,https://place.map.kakao.com/8299376
왕대박숯불구이,한식,갈비/삼겹살,한식 음식점업,대치동,서울특별시 강남구 영동대로85길 20-7,37.5073706982219,127.061604134108,0.0,340.0,"육류,고기",육류/고기,https://place.map.kakao.com/1993942356
즉석떡볶이88,분식,떡볶이전문,분식 및 김밥 전문점,삼성동,서울특별시 강남구 봉은사로 466,37.5119597642227,127.050665111224,4.6,789.0,떡볶이,분식,https://place.map.kakao.com/1790480653
그린파이브,양식,기타전문서양음식점,서양식 음식점업,삼성동,서울특별시 강남구 테헤란로 517,37.5086083814458,127.05974496335,0.0,205.0,"초밥,롤",일식/돈까스,https://place.map.kakao.com/1619549203
만다린,중식,중국음식/중국집,중식 음식점업,대치동,서울특별시 강남구 삼성로81길 34,37.5039830245632,127.054860416091,4.5,481.0,중화요리,중식,https://place.map.kakao.com/16056186
써니쿡,분식,라면김밥분식,분식 및 김밥 전문점,대치동,서울특별시 강남구 역삼로78길 15,37.5015605650684,127.057288637623,0.0,678.0,도시락,패스트푸드,https://place.map.kakao.com/21442837
원조감자탕일미집,한식,해장국/감자탕,한식 음식점업,대치동,서울특별시 강남구 선릉로86길 48,37.5041082093327,127.053614714042,3.0,537.0,감자탕,국/탕,https://place.map.kakao.com/1650126753
멍텅구리꼼장어,일식/수산물,곰장어전문,한식 음식점업,삼성동,서울특별시 강남구 봉은사로 445,37.5118514655959,127.048404206517,3.8,949.0,장어,해물/생선,https://place.map.kakao.com/14921215
찜닭에꽂힌닭집애,한식,한식/백반/한정식,한식 음식점업,대치동,서울특별시 강남구 선릉로 334,37.499577867777695,127.051613559422,0.0,1048.0,한식,한식,https://place.map.kakao.com/1546555446
빨강떡볶이,분식,떡볶이전문,분식 및 김밥 전문점,삼성동,서울특별시 강남구 봉은사로67길 30,37.5136957039447,127.048041440985,2.7,1090.0,떡볶이,분식,https://place.map.kakao.com/1429596308
고피자,한식,한식/백반/한정식,한식 음식점업,삼성동,서울특별시 강남구 봉은사로63길 14,37.5122821772943,127.047063987514,5.0,1075.0,피자,패스트푸드,https://place.map.kakao.com/61163488
버거킹,패스트푸드,패스트푸드,그외 기타 음식점업,삼성동,서울특별시 강남구 봉은사로 502,37.5128772194951,127.053832032991,4.0,677.0,패스트푸드,패스트푸드,https://place.map.kakao.com/2100102769
초원족발,한식,족발/보쌈전문,한식 음식점업,삼성동,서울특별시 강남구 테헤란로81길 22,37.508495653930495,127.056907345684,2.0,121.0,"족발,보쌈",육류/고기,https://place.map.kakao.com/26794877
소곱창과순대국,한식,한식/백반/한정식,한식 음식점업,삼성동,서울특별시 강남구 삼성로 517,37.5080786526444,127.055464807235,5.0,208.0,"곱창,막창",곱창/막창/순대,https://place.map.kakao.com/1718820798
단골집,한식,해장국/감자탕,한식 음식점업,삼성동,서울특별시 강남구 선릉로112길 36,37.51179155057,127.046561213687,5.0,1090.0,해장국,국/탕,https://place.map.kakao.com/1232198642
바토스,양식,기타전문서양음식점,서양식 음식점업,삼성동,서울특별시 강남구 테헤란로 521,37.50918435794689,127.060789660534,4.2,317.0,"멕시칸,브라질",기타,https://place.map.kakao.com/1635696078
농민백암,한식,한식/백반/한정식,한식 음식점업,대치동,서울특별시 강남구 선릉로86길 40-3,37.50378924656,127.05316633355,4.3,590.0,순대,곱창/막창/순대,https://place.map.kakao.com/17163273
날마다막창,한식,곱창/양구이전문,한식 음식점업,대치동,서울특별시 강남구 역삼로63길 17,37.5022569107682,127.051975521283,1.0,787.0,"곱창,막창",곱창/막창/순대,https://place.map.kakao.com/220937592
면전,한식,한식/백반/한정식,한식 음식점업,대치동,서울특별시 강남구 삼성로85길 33,37.5042799811461,127.054811431542,0.0,456.0,국수,국수,https://place.map.kakao.com/1045294507
엄마의부엌,한식,한식/백반/한정식,한식 음식점업,삼성동,서울특별시 강남구 삼성로 571,37.5123404849208,127.053194055546,0.0,659.0,한식,한식,https://place.map.kakao.com/1962472903
유채라멘,분식,라면김밥분식,분식 및 김밥 전문점,대치동,서울특별시 강남구 삼성로63길 25,37.499386450293,127.058096327075,4.4,919.0,일본식라면,일식/돈까스,https://place.map.kakao.com/1444188431
팔공뭉티기,한식,한식/백반/한정식,한식 음식점업,삼성동,서울특별시 강남구 삼성로103길 12,37.510386662713,127.053377092173,0.0,492.0,"육류,고기",육류/고기,https://place.map.kakao.com/1943836909
UFO버거,패스트푸드,패스트푸드,그외 기타 음식점업,대치동,서울특별시 강남구 도곡로 510,37.4990133147849,127.06216110792,2.4,1035.0,햄버거,패스트푸드,https://place.map.kakao.com/266772725
700곳간,일식/수산물,음식점-일식,일식 음식점업,대치동,서울특별시 강남구 삼성로85길 19,37.5047106707144,127.055710826447,5.0,373.0,"찌개,전골",국/탕,https://place.map.kakao.com/2130661314
쉐이크쉑,한식,한식/백반/한정식,한식 음식점업,삼성동,서울특별시 강남구 영동대로 513,37.5118203253706,127.059139102428,4.0,480.0,햄버거,패스트푸드,https://place.map.kakao.com/204876576
배떡,분식,라면김밥분식,분식 및 김밥 전문점,대치동,서울특별시 강남구 삼성로 212,37.4996105819766,127.065897098053,0.0,1146.0,분식,분식,https://place.map.kakao.com/489356724
배떡,분식,라면김밥분식,분식 및 김밥 전문점,삼성동,서울특별시 강남구 삼성로95길 15,37.5077374237006,127.054485070126,0.0,289.0,한식,한식,https://place.map.kakao.com/489356724
맛자랑,한식,한식/백반/한정식,한식 음식점업,삼성동,서울특별시 강남구 선릉로 524,37.5066430806136,127.048368528927,5.0,836.0,한식,한식,https://place.map.kakao.com/2002668188
보드람죽,한식,한식/백반/한정식,한식 음식점업,대치동,서울특별시 강남구 선릉로64길 28,37.4982317866289,127.054548390745,0.0,1085.0,죽,한식,https://place.map.kakao.com/687865656
우아한강남키친,한식,한식/백반/한정식,한식 음식점업,대치동,서울특별시 강남구 삼성로81길 43,37.5035636927822,127.05425495497,0.0,549.0,도시락,패스트푸드,https://place.map.kakao.com/1924583841
명품유쾌,한식,한식/백반/한정식,한식 음식점업,대치동,서울특별시 강남구 선릉로 334,37.499577867777695,127.051613559422,5.0,1048.0,"육류,고기",육류/고기,https://place.map.kakao.com/1099775582
오늘통닭,닭/오리요리,후라이드/양념치킨,치킨 전문점,삼성동,서울특별시 강남구 테헤란로63길 12,37.5061304399553,127.050727624277,5.0,643.0,치킨,치킨,https://place.map.kakao.com/262741496
스시한판,일식/수산물,음식점-초밥전문,일식 음식점업,대치동,서울특별시 강남구 삼성로85길 11,37.5045881509052,127.056164781276,1.8,368.0,"초밥,롤",일식/돈까스,https://place.map.kakao.com/23686684
오레노카츠,일식/수산물,음식점-일식,일식 음식점업,대치동,서울특별시 강남구 도곡로63길 28,37.498830726116495,127.053952749357,5.0,1036.0,"돈까스,우동",일식/돈까스,https://place.map.kakao.com/1647819710
미나다,일식/수산물,음식점-일식,일식 음식점업,삼성동,서울특별시 강남구 선릉로 514,37.5055951465088,127.049150940996,1.0,793.0,한식,한식,https://place.map.kakao.com/982176874
송파만두,한식,한식/백반/한정식,한식 음식점업,대치동,서울특별시 강남구 삼성로81길 43,37.5035636927822,127.05425495497,4.2,549.0,분식,분식,https://place.map.kakao.com/1487976534
오한수우육면가,한식,한식/백반/한정식,한식 음식점업,삼성동,서울특별시 강남구 선릉로 514,37.5055951465088,127.049150940996,0.0,793.0,중화요리,중식,https://place.map.kakao.com/1554131504
칠리향마라탕,중식,중국음식/중국집,중식 음식점업,대치동,서울특별시 강남구 선릉로86길 30,37.5036282828868,127.052195693976,4.7,664.0,중화요리,중식,https://place.map.kakao.com/199958922
블랙바스테이크하우스,한식,한식/백반/한정식,한식 음식점업,대치동,서울특별시 강남구 테헤란로 610,37.5088175499617,127.064526865103,0.0,611.0,"스테이크,립",양식,https://place.map.kakao.com/1553532582
국대떡볶이,분식,라면김밥분식,분식 및 김밥 전문점,대치동,서울특별시 강남구 삼성로 231,37.4978144250794,127.06096600933,2.7,1129.0,떡볶이,분식,https://place.map.kakao.com/21442375
오로라김밥,분식,라면김밥분식,분식 및 김밥 전문점,대치동,서울특별시 강남구 도곡로77길 6,37.4987607308839,127.058726204464,5.0,992.0,분식,분식,https://place.map.kakao.com/690805580
신식신,중식,중국음식/중국집,중식 음식점업,대치동,서울특별시 강남구 삼성로85길 32,37.5047020772824,127.054636455439,3.0,428.0,중화요리,중식,https://place.map.kakao.com/1661789867
지니김밥,분식,라면김밥분식,분식 및 김밥 전문점,대치동,서울특별시 강남구 도곡로73길 13,37.4987375613959,127.056950917897,0.0,993.0,분식,분식,https://place.map.kakao.com/1986863718
다도,일식/수산물,음식점-일식,일식 음식점업,삼성동,서울특별시 강남구 테헤란로77길 11-8,37.5071643823693,127.053813657136,5.0,352.0,회,해물/생선,https://place.map.kakao.com/16818959
하랑,일식/수산물,음식점-일식,일식 음식점업,삼성동,서울특별시 강남구 선릉로112길 38,37.5118557133838,127.046696134053,5.0,1082.0,"돈까스,우동",일식/돈까스,https://place.map.kakao.com/1008182687
부산아지매국밥,한식,한식/백반/한정식,한식 음식점업,대치동,서울특별시 강남구 삼성로81길 36,37.5039178755402,127.054601103032,3.6,500.0,국밥,국/탕,https://place.map.kakao.com/18776809
꼬육꼬밥,한식,한식/백반/한정식,한식 음식점업,대치동,서울특별시 강남구 도곡로 516,37.499172940488,127.062973394068,0.0,1048.0,한식,한식,https://place.map.kakao.com/56538560
옐로트렁크,양식,정통양식/경양식,서양식 음식점업,대치동,서울특별시 강남구 테헤란로86길 10,37.5066829296312,127.058966060412,0.0,151.0,햄버거,패스트푸드,https://place.map.kakao.com/423501173
장수식당,한식,한식/백반/한정식,한식 음식점업,대치동,서울특별시 강남구 역삼로 455,37.5027383033078,127.056957149265,0.0,550.0,한식,한식,https://place.map.kakao.com/2123775506
뒤끝,한식,한식/백반/한정식,한식 음식점업,대치동,서울특별시 강남구 테헤란로104길 8,37.5085853583327,127.064789913491,5.0,629.0,한식,한식,https://place.map.kakao.com/1377224551
식껍,한식,기타고기요리,한식 음식점업,삼성동,서울특별시 강남구 테헤란로107길 11,37.5104254799265,127.065038423419,0.0,712.0,"육류,고기",육류/고기,https://place.map.kakao.com/138169036
뿔한우,양식,정통양식/경양식,서양식 음식점업,삼성동,서울특별시 강남구 봉은사로 420,37.5105271905108,127.046204027793,1.8,1069.0,"육류,고기",육류/고기,https://place.map.kakao.com/1577768106
밀본,한식,한식/백반/한정식,한식 음식점업,대치동,서울특별시 강남구 테헤란로84길 25,37.5055401441444,127.059161372201,0.0,265.0,한식,한식,https://place.map.kakao.com/1405337060
투도우,한식,한식/백반/한정식,한식 음식점업,삼성동,서울특별시 강남구 봉은사로 449,37.5119806977954,127.04878715339,0.0,927.0,양식,양식,https://place.map.kakao.com/1242414641
열도미행파르나스몰점,일식/수산물,음식점-일식,일식 음식점업,삼성동,서울특별시 강남구 테헤란로 521,37.50918435794689,127.060789660534,1.0,317.0,일식,일식/돈까스,https://place.map.kakao.com/475747448
수미돈,한식,한식/백반/한정식,한식 음식점업,삼성동,서울특별시 강남구 삼성로103길 12,37.510386662713,127.053377092173,5.0,492.0,"육류,고기",육류/고기,https://place.map.kakao.com/1910209131
긴자료코,한식,한식/백반/한정식,한식 음식점업,대치동,서울특별시 강남구 삼성로 327,37.50088412827309,127.059468611259,5.0,767.0,"돈까스,우동",일식/돈까스,https://place.map.kakao.com/1036286011
맛자랑,한식,한식/백반/한정식,한식 음식점업,대치동,서울특별시 강남구 선릉로 326,37.4987612570104,127.052031026147,4.8,1110.0,한정식,한식,https://place.map.kakao.com/2002668188
