[{"name":"의정부부대찌개","cate_1":"한식","cate_2":"부대찌개\/섞어찌개","cate_3":"한식 음식점업","area":"대치동","address":"서울특별시 강남구 역삼로83길 24","lon":37.505082362622403,"lat":127.059382014164001,"rate":3.0,"distance":319.0,"tag":"찌개,전골"},{"name":"바른치킨","cate_1":"닭\/오리요리","cate_2":"후라이드\/양념치킨","cate_3":"치킨 전문점","area":"대치동","address":"서울특별시 강남구 선릉로86길 17","lon":37.503556045115602,"lat":127.051054283867003,"rate":2.7,"distance":746.0,"tag":"치킨"},{"name":"곰바위","cate_1":"한식","cate_2":"한식\/백반\/한정식","cate_3":"한식 음식점업","area":"삼성동","address":"서울특별시 강남구 봉은사로97길 16","lon":37.514924869214603,"lat":127.058625030656003,"rate":3.1,"distance":813.0,"tag":"곱창,막창"},{"name":"놀부보쌈삼성역점","cate_1":"한식","cate_2":"족발\/보쌈전문","cate_3":"한식 음식점업","area":"대치동","address":"서울특별시 강남구 영동대로85길 7","lon":37.507103159142893,"lat":127.063089181717004,"rate":1.0,"distance":474.0,"tag":"족발,보쌈"},{"name":"하루엔소쿠","cate_1":"일식\/수산물","cate_2":"음식점-일식","cate_3":"일식 음식점업","area":"대치동","address":"서울특별시 강남구 테헤란로70길 16","lon":37.504393890075498,"lat":127.053283110318006,"rate":0.0,"distance":536.0,"tag":"일식"},{"name":"남원추어탕","cate_1":"한식","cate_2":"추어탕전문","cate_3":"한식 음식점업","area":"대치동","address":"서울특별시 강남구 영동대로86길 27","lon":37.508489231462697,"lat":127.066306771778002,"rate":0.0,"distance":760.0,"tag":"추어"},{"name":"사천옥","cate_1":"한식","cate_2":"한식\/백반\/한정식","cate_3":"한식 음식점업","area":"대치동","address":"서울특별시 강남구 선릉로86길 12","lon":37.503095008704797,"lat":127.050867848067,"rate":4.0,"distance":791.0,"tag":"한식"},{"name":"JS테이블","cate_1":"양식","cate_2":"돈가스전문점","cate_3":"서양식 음식점업","area":"대치동","address":"서울특별시 강남구 선릉로82길 5","lon":37.502605216093002,"lat":127.050466888835004,"rate":3.2,"distance":853.0,"tag":"돈까스,우동"},{"name":"진가샤브샤브","cate_1":"별식\/퓨전요리","cate_2":"샤브샤브전문","cate_3":"한식 음식점업","area":"대치동","address":"서울특별시 강남구 도곡로 426","lon":37.497387284702398,"lat":127.057114918210004,"rate":2.7,"distance":1142.0,"tag":"샤브샤브"},{"name":"가나안","cate_1":"분식","cate_2":"라면김밥분식","cate_3":"분식 및 김밥 전문점","area":"대치동","address":"서울특별시 강남구 역삼로 450","lon":37.502220146923101,"lat":127.056386859800995,"rate":0.0,"distance":615.0,"tag":"분식"},{"name":"종인이네만두","cate_1":"한식","cate_2":"한식\/백반\/한정식","cate_3":"한식 음식점업","area":"삼성동","address":"서울특별시 강남구 테헤란로81길 60-4","lon":37.510461720114201,"lat":127.056000337255,"rate":4.0,"distance":349.0,"tag":"분식"},{"name":"조랭이부대찌개","cate_1":"한식","cate_2":"부대찌개\/섞어찌개","cate_3":"한식 음식점업","area":"대치동","address":"서울특별시 강남구 테헤란로78길 16","lon":37.505049963096702,"lat":127.055322000640004,"rate":0.0,"distance":360.0,"tag":"찌개,전골"},{"name":"메밀향막국수","cate_1":"한식","cate_2":"한식\/백반\/한정식","cate_3":"한식 음식점업","area":"대치동","address":"서울특별시 강남구 삼성로 212","lon":37.499610581976597,"lat":127.065897098053,"rate":0.0,"distance":1146.0,"tag":"국수"},{"name":"도가촌제주생오겹살","cate_1":"한식","cate_2":"갈비\/삼겹살","cate_3":"한식 음식점업","area":"대치동","address":"서울특별시 강남구 역삼로 433","lon":37.501843392201103,"lat":127.054344513616002,"rate":0.0,"distance":712.0,"tag":"육류,고기"},{"name":"황소곱창","cate_1":"한식","cate_2":"기타고기요리","cate_3":"한식 음식점업","area":"삼성동","address":"서울특별시 강남구 봉은사로82길 16","lon":37.512120454905599,"lat":127.054972729013997,"rate":3.7,"distance":555.0,"tag":"곱창,막창"},{"name":"이조복집","cate_1":"일식\/수산물","cate_2":"복전문","cate_3":"한식 음식점업","area":"삼성동","address":"서울특별시 강남구 봉은사로112길 28","lon":37.513090192328498,"lat":127.064733704942995,"rate":3.0,"distance":863.0,"tag":"복어"},{"name":"정통원조한방삼계탕","cate_1":"닭\/오리요리","cate_2":"삼계탕전문","cate_3":"한식 음식점업","area":"대치동","address":"서울특별시 강남구 테헤란로68길 25","lon":37.503633362632499,"lat":127.052828997841004,"rate":2.6,"distance":623.0,"tag":"삼계탕"},{"name":"멘뮤샤","cate_1":"일식\/수산물","cate_2":"음식점-일식","cate_3":"일식 음식점업","area":"삼성동","address":"서울특별시 강남구 영동대로 513","lon":37.5118203253706,"lat":127.059139102428006,"rate":2.1,"distance":480.0,"tag":"일본식라면"},{"name":"BHC치킨","cate_1":"닭\/오리요리","cate_2":"후라이드\/양념치킨","cate_3":"치킨 전문점","area":"삼성동","address":"서울특별시 강남구 영동대로 611","lon":37.514714675119294,"lat":127.059385563017003,"rate":1.2,"distance":799.0,"tag":"치킨"},{"name":"새벽바다","cate_1":"일식\/수산물","cate_2":"횟집","cate_3":"한식 음식점업","area":"대치동","address":"서울특별시 강남구 역삼로 449","lon":37.502515026189897,"lat":127.056077779231998,"rate":0.0,"distance":590.0,"tag":"회"},{"name":"코우","cate_1":"일식\/수산물","cate_2":"음식점-초밥전문","cate_3":"일식 음식점업","area":"대치동","address":"서울특별시 강남구 삼성로85길 11","lon":37.5045881509052,"lat":127.056164781275996,"rate":4.3,"distance":368.0,"tag":"일식"},{"name":"신의주부대찌개","cate_1":"한식","cate_2":"부대찌개\/섞어찌개","cate_3":"한식 음식점업","area":"삼성동","address":"서울특별시 강남구 봉은사로108길 3-10","lon":37.514402647014698,"lat":127.064344037840996,"rate":3.0,"distance":949.0,"tag":"찌개,전골"},{"name":"홍춘천치즈닭갈비","cate_1":"닭\/오리요리","cate_2":"닭갈비전문","cate_3":"한식 음식점업","area":"대치동","address":"서울특별시 강남구 선릉로 424","lon":37.502899170118496,"lat":127.050044694901004,"rate":3.0,"distance":861.0,"tag":"닭요리"},{"name":"한솥도시락 대치동삼성아파트입구점","cate_1":"패스트푸드","cate_2":"도시락전문점","cate_3":"한식 음식점업","area":"대치동","address":"서울특별시 강남구 삼성로57길 22","lon":37.497791559716198,"lat":127.059224668164006,"rate":4.0,"distance":1103.0,"tag":"도시락"},{"name":"대치정육식당","cate_1":"한식","cate_2":"한식\/백반\/한정식","cate_3":"한식 음식점업","area":"대치동","address":"서울특별시 강남구 역삼로 450","lon":37.502220146923101,"lat":127.056386859800995,"rate":3.8,"distance":615.0,"tag":"육류,고기"},{"name":"푸세울닭","cate_1":"닭\/오리요리","cate_2":"후라이드\/양념치킨","cate_3":"치킨 전문점","area":"삼성동","address":"서울특별시 강남구 영동대로 510","lon":37.5105341373798,"lat":127.062831384963999,"rate":3.4,"distance":550.0,"tag":"치킨"},{"name":"부대찌개연","cate_1":"한식","cate_2":"한식\/백반\/한정식","cate_3":"한식 음식점업","area":"대치동","address":"서울특별시 강남구 테헤란로70길 28","lon":37.503820987715493,"lat":127.053754061712993,"rate":5.0,"distance":553.0,"tag":"찌개,전골"},{"name":"사보텐코엑스점","cate_1":"양식","cate_2":"돈가스전문점","cate_3":"서양식 음식점업","area":"삼성동","address":"서울특별시 강남구 영동대로 513","lon":37.5118203253706,"lat":127.059139102428006,"rate":2.9,"distance":480.0,"tag":"돈까스,우동"},{"name":"싸움의고수","cate_1":"한식","cate_2":"한식\/백반\/한정식","cate_3":"한식 음식점업","area":"대치동","address":"서울특별시 강남구 도곡로 510","lon":37.499013314784896,"lat":127.062161107920005,"rate":3.0,"distance":1035.0,"tag":"한정식"},{"name":"제주몬트락 한티점","cate_1":"한식","cate_2":"기타고기요리","cate_3":"한식 음식점업","area":"대치동","address":"서울특별시 강남구 선릉로64길 11-4","lon":37.498220918380703,"lat":127.053191408304997,"rate":3.1,"distance":1123.0,"tag":"육류,고기"},{"name":"만나분식","cate_1":"분식","cate_2":"라면김밥분식","cate_3":"분식 및 김밥 전문점","area":"대치동","address":"서울특별시 강남구 삼성로 212","lon":37.499610581976597,"lat":127.065897098053,"rate":2.6,"distance":1146.0,"tag":"분식"},{"name":"광수사","cate_1":"일식\/수산물","cate_2":"음식점-일식","cate_3":"일식 음식점업","area":"삼성동","address":"서울특별시 강남구 테헤란로77길 22","lon":37.508005811706802,"lat":127.054244157978999,"rate":3.8,"distance":313.0,"tag":"일식집"},{"name":"둘둘치킨삼성역점","cate_1":"닭\/오리요리","cate_2":"후라이드\/양념치킨","cate_3":"치킨 전문점","area":"대치동","address":"서울특별시 강남구 영동대로85길 6","lon":37.507417241583902,"lat":127.062926906141001,"rate":1.0,"distance":456.0,"tag":"치킨"},{"name":"국대떡볶기","cate_1":"분식","cate_2":"떡볶이전문","cate_3":"분식 및 김밥 전문점","area":"대치동","address":"서울특별시 강남구 선릉로 424","lon":37.502899170118496,"lat":127.050044694901004,"rate":2.7,"distance":861.0,"tag":"떡볶이"},{"name":"맥도날드","cate_1":"패스트푸드","cate_2":"패스트푸드","cate_3":"그외 기타 음식점업","area":"대치동","address":"서울특별시 강남구 도곡로 409","lon":37.497362554039199,"lat":127.055147428124997,"rate":1.8,"distance":1167.0,"tag":"패스트푸드"},{"name":"하남돼지집","cate_1":"한식","cate_2":"갈비\/삼겹살","cate_3":"한식 음식점업","area":"대치동","address":"서울특별시 강남구 선릉로86길 10","lon":37.503030396321293,"lat":127.050676395126999,"rate":2.2,"distance":809.0,"tag":"삼겹살"},{"name":"명인등심","cate_1":"한식","cate_2":"기타고기요리","cate_3":"한식 음식점업","area":"삼성동","address":"서울특별시 강남구 봉은사로86길 30","lon":37.511441628526804,"lat":127.056847656648003,"rate":3.6,"distance":430.0,"tag":"육류,고기"},{"name":"삼성한방삼계탕","cate_1":"닭\/오리요리","cate_2":"삼계탕전문","cate_3":"한식 음식점업","area":"삼성동","address":"서울특별시 강남구 영동대로 602","lon":37.5145808720792,"lat":127.060688099708997,"rate":0.0,"distance":813.0,"tag":"삼계탕"},{"name":"고래즉석떡볶이","cate_1":"분식","cate_2":"떡볶이전문","cate_3":"분식 및 김밥 전문점","area":"대치동","address":"서울특별시 강남구 선릉로90길 56","lon":37.505071516843699,"lat":127.053512070975003,"rate":0.0,"distance":472.0,"tag":"떡볶이"},{"name":"맛닭꼬대치점","cate_1":"닭\/오리요리","cate_2":"후라이드\/양념치킨","cate_3":"치킨 전문점","area":"대치동","address":"서울특별시 강남구 삼성로 227","lon":37.497429615183599,"lat":127.061298795175006,"rate":4.2,"distance":1178.0,"tag":"닭요리"},{"name":"이삭김밥","cate_1":"분식","cate_2":"라면김밥분식","cate_3":"분식 및 김밥 전문점","area":"삼성동","address":"서울특별시 강남구 봉은사로74길 10","lon":37.511732146872397,"lat":127.051493723882999,"rate":3.9,"distance":716.0,"tag":"분식"},{"name":"놀란치킨","cate_1":"닭\/오리요리","cate_2":"후라이드\/양념치킨","cate_3":"치킨 전문점","area":"대치동","address":"서울특별시 강남구 테헤란로64길 9","lon":37.504488034784302,"lat":127.051540139422002,"rate":4.0,"distance":652.0,"tag":"치킨"},{"name":"길농원","cate_1":"닭\/오리요리","cate_2":"오리고기전문","cate_3":"한식 음식점업","area":"대치동","address":"서울특별시 강남구 테헤란로108길 28","lon":37.507569171649799,"lat":127.066182502515005,"rate":2.5,"distance":743.0,"tag":"오리"},{"name":"더케이","cate_1":"한식","cate_2":"한식\/백반\/한정식","cate_3":"한식 음식점업","area":"삼성동","address":"서울특별시 강남구 봉은사로63길 19","lon":37.512620526776999,"lat":127.046561979816005,"rate":0.0,"distance":1132.0,"tag":"한식"},{"name":"홍영재장수청국장","cate_1":"한식","cate_2":"한식\/백반\/한정식","cate_3":"한식 음식점업","area":"대치동","address":"서울특별시 강남구 영동대로 424","lon":37.507492411685398,"lat":127.064452915868003,"rate":3.5,"distance":590.0,"tag":"한식"},{"name":"24시와구아구","cate_1":"일식\/수산물","cate_2":"아구전문","cate_3":"한식 음식점업","area":"대치동","address":"서울특별시 강남구 삼성로85길 42","lon":37.504622755939501,"lat":127.053732632052998,"rate":3.3,"distance":489.0,"tag":"아구"},{"name":"김가네 한티점","cate_1":"분식","cate_2":"라면김밥분식","cate_3":"분식 및 김밥 전문점","area":"대치동","address":"서울특별시 강남구 역삼로64길 26","lon":37.499420290264403,"lat":127.053311978695007,"rate":3.0,"distance":995.0,"tag":"분식"},{"name":"역전우동0410","cate_1":"분식","cate_2":"우동전문점","cate_3":"분식 및 김밥 전문점","area":"대치동","address":"서울특별시 강남구 선릉로64길 17","lon":37.498215623792895,"lat":127.053655157590001,"rate":4.8,"distance":1110.0,"tag":"돈까스,우동"},{"name":"삼군김치찌개","cate_1":"한식","cate_2":"한식\/백반\/한정식","cate_3":"한식 음식점업","area":"대치동","address":"서울특별시 강남구 영동대로86길 28","lon":37.508247042918093,"lat":127.066445518617996,"rate":2.3,"distance":769.0,"tag":"찌개,전골"},{"name":"우노한우","cate_1":"한식","cate_2":"갈비\/삼겹살","cate_3":"한식 음식점업","area":"대치동","address":"서울특별시 강남구 테헤란로70길 10","lon":37.504978610728003,"lat":127.053162623111007,"rate":4.7,"distance":503.0,"tag":"육류,고기"},{"name":"용호낙지","cate_1":"한식","cate_2":"곱창\/양구이전문","cate_3":"한식 음식점업","area":"삼성동","address":"서울특별시 강남구 테헤란로 419","lon":37.505862674785902,"lat":127.052167445763999,"rate":1.5,"distance":532.0,"tag":"해물,생선"},{"name":"목포낙지횟집","cate_1":"일식\/수산물","cate_2":"횟집","cate_3":"한식 음식점업","area":"삼성동","address":"서울특별시 강남구 테헤란로107길 12","lon":37.510653764882896,"lat":127.065420157185002,"rate":5.0,"distance":754.0,"tag":"회"},{"name":"라무진","cate_1":"한식","cate_2":"기타고기요리","cate_3":"한식 음식점업","area":"대치동","address":"서울특별시 강남구 역삼로63길 6","lon":37.501577076726896,"lat":127.052594848035,"rate":4.0,"distance":814.0,"tag":"육류,고기"},{"name":"남도밥상","cate_1":"한식","cate_2":"한식\/백반\/한정식","cate_3":"한식 음식점업","area":"대치동","address":"서울특별시 강남구 테헤란로 504","lon":37.506615796088298,"lat":127.057326866248005,"rate":4.4,"distance":121.0,"tag":"한식"},{"name":"소공동뚝배기집삼성본점","cate_1":"한식","cate_2":"한식\/백반\/한정식","cate_3":"한식 음식점업","area":"삼성동","address":"서울특별시 강남구 봉은사로114길 38","lon":37.512653463780495,"lat":127.065338665086998,"rate":2.3,"distance":870.0,"tag":"찌개,전골"},{"name":"바토스파르나스몰","cate_1":"양식","cate_2":"정통양식\/경양식","cate_3":"서양식 음식점업","area":"삼성동","address":"서울특별시 강남구 테헤란로 521","lon":37.509184357946893,"lat":127.060789660533999,"rate":4.2,"distance":317.0,"tag":"멕시칸,브라질"},{"name":"육시리","cate_1":"한식","cate_2":"기타고기요리","cate_3":"한식 음식점업","area":"대치동","address":"서울특별시 강남구 선릉로90길 56","lon":37.505071516843699,"lat":127.053512070975003,"rate":3.3,"distance":472.0,"tag":"육류,고기"},{"name":"도마수산","cate_1":"일식\/수산물","cate_2":"횟집","cate_3":"한식 음식점업","area":"대치동","address":"서울특별시 강남구 삼성로85길 33","lon":37.504279981146098,"lat":127.054811431542007,"rate":2.0,"distance":456.0,"tag":"회"},{"name":"한빛살한우","cate_1":"한식","cate_2":"기타고기요리","cate_3":"한식 음식점업","area":"삼성동","address":"서울특별시 강남구 삼성로100길 23-11","lon":37.510784104901695,"lat":127.056878552762001,"rate":5.0,"distance":357.0,"tag":"육류,고기"},{"name":"KFC대치동점","cate_1":"닭\/오리요리","cate_2":"후라이드\/양념치킨","cate_3":"치킨 전문점","area":"대치동","address":"서울특별시 강남구 도곡로 517","lon":37.499893266425801,"lat":127.062907844796996,"rate":2.3,"distance":974.0,"tag":"패스트푸드"},{"name":"가득드림","cate_1":"한식","cate_2":"한식\/백반\/한정식","cate_3":"한식 음식업점","area":"삼성동","address":"서울특별시 강남구 영동대로 513","lon":37.512939396928893,"lat":127.057100286394004,"rate":4.7,"distance":591.0,"tag":"한식"},{"name":"딤딤섬 파르나스몰점","cate_1":"중식","cate_2":"중국음식\/중국집","cate_3":"중식 음식점업","area":"삼성동","address":"서울특별시 강남구 테헤란로 521","lon":37.509184357946893,"lat":127.060789660533999,"rate":3.4,"distance":317.0,"tag":"중식"},{"name":"물조은선주집","cate_1":"일식\/수산물","cate_2":"횟집","cate_3":"한식 음식점업","area":"삼성동","address":"서울특별시 강남구 봉은사로84길 29","lon":37.511419724876895,"lat":127.056361545382003,"rate":3.6,"distance":437.0,"tag":"회"},{"name":"부산아지매국밥","cate_1":"한식","cate_2":"한식\/백반\/한정식","cate_3":"한식 음식점업","area":"삼성동","address":"서울특별시 강남구 삼성로 517","lon":37.5080786526444,"lat":127.055464807234998,"rate":1.0,"distance":208.0,"tag":"국밥"},{"name":"진양재순대","cate_1":"별식\/퓨전요리","cate_2":"순대전문점","cate_3":"한식 음식점업","area":"삼성동","address":"서울특별시 강남구 봉은사로114길 38","lon":37.512653463780495,"lat":127.065338665086998,"rate":5.0,"distance":870.0,"tag":"순대"},{"name":"신마포갈매기삼성역점","cate_1":"한식","cate_2":"갈비\/삼겹살","cate_3":"한식 음식점업","area":"삼성동","address":"서울특별시 강남구 삼성로104길 28","lon":37.511244680532002,"lat":127.057008493040001,"rate":2.3,"distance":406.0,"tag":"육류,고기"},{"name":"여수동촌","cate_1":"일식\/수산물","cate_2":"횟집","cate_3":"한식 음식점업","area":"대치동","address":"서울특별시 강남구 삼성로75길 9","lon":37.503364031536599,"lat":127.057458233681004,"rate":4.0,"distance":477.0,"tag":"회"},{"name":"김동진장호왕곱창","cate_1":"한식","cate_2":"곱창\/양구이전문","cate_3":"한식 음식점업","area":"대치동","address":"서울특별시 강남구 삼성로84길 15","lon":37.5056454671616,"lat":127.058809426368001,"rate":3.3,"distance":241.0,"tag":"곱창,막창"},{"name":"레아레스토랑","cate_1":"일식\/수산물","cate_2":"음식점-일식","cate_3":"일식 음식점업","area":"대치동","address":"서울특별시 강남구 테헤란로 432","lon":37.505766211594597,"lat":127.054747451829002,"rate":0.0,"distance":338.0,"tag":"일식"},{"name":"속이꽉찬만두99.9","cate_1":"분식","cate_2":"국수\/만두\/칼국수","cate_3":"분식 및 김밥 전문점","area":"대치동","address":"서울특별시 강남구 삼성로75길 26","lon":37.503136873314801,"lat":127.056092570534005,"rate":4.6,"distance":523.0,"tag":"분식"},{"name":"삼백플러스","cate_1":"한식","cate_2":"한식\/백반\/한정식","cate_3":"한식 음식점업","area":"삼성동","address":"서울특별시 강남구 테헤란로 447","lon":37.507119140507697,"lat":127.056042430630001,"rate":4.2,"distance":163.0,"tag":"한식뷔페"},{"name":"메콩타이","cate_1":"별식\/퓨전요리","cate_2":"동남아음식전문점","cate_3":"기타 외국식 음식점업","area":"대치동","address":"서울특별시 강남구 테헤란로104길 9","lon":37.508588849742701,"lat":127.065230995137995,"rate":4.4,"distance":667.0,"tag":"아시아음식"},{"name":"노브랜드버거","cate_1":"패스트푸드","cate_2":"패스트푸드","cate_3":"피자, 햄버거, 샌드위치 및 유사 음식점업","area":"삼성동","address":"서울특별시 강남구 영동대로 513","lon":37.5118203253706,"lat":127.059139102428006,"rate":3.0,"distance":480.0,"tag":"패스트푸드"},{"name":"글로브비스트로","cate_1":"양식","cate_2":"기타전문서양음식점","cate_3":"서양식 음식점업","area":"삼성동","address":"서울특별시 강남구 테헤란로 521","lon":37.509184357946893,"lat":127.060789660533999,"rate":2.9,"distance":317.0,"tag":"이탈리안"},{"name":"스시산원","cate_1":"일식\/수산물","cate_2":"음식점-초밥전문","cate_3":"일식 음식점업","area":"삼성동","address":"서울특별시 강남구 선릉로100길 42","lon":37.506563357025001,"lat":127.050778695332994,"rate":3.2,"distance":628.0,"tag":"초밥,롤"},{"name":"김태주선산곱창","cate_1":"한식","cate_2":"곱창\/양구이전문","cate_3":"한식 음식점업","area":"대치동","address":"서울특별시 강남구 선릉로82길 8","lon":37.502399903006697,"lat":127.050706998067,"rate":4.3,"distance":853.0,"tag":"곱창,막창"},{"name":"대치상회","cate_1":"한식","cate_2":"기타고기요리","cate_3":"한식 음식점업","area":"대치동","address":"서울특별시 강남구 삼성로58길 33","lon":37.499270030575694,"lat":127.063854321459999,"rate":3.7,"distance":1075.0,"tag":"육류,고기"},{"name":"두꺼비정육식당","cate_1":"한식","cate_2":"갈비\/삼겹살","cate_3":"한식 음식점업","area":"대치동","address":"서울특별시 강남구 역삼로 421","lon":37.501454749944799,"lat":127.053071405956004,"rate":3.4,"distance":803.0,"tag":"육류,고기"},{"name":"서갈비","cate_1":"한식","cate_2":"갈비\/삼겹살","cate_3":"한식 음식점업","area":"대치동","address":"서울특별시 강남구 선릉로 420","lon":37.502486363371801,"lat":127.050253504604996,"rate":3.3,"distance":876.0,"tag":"한식"},{"name":"곱창도둑","cate_1":"한식","cate_2":"곱창\/양구이전문","cate_3":"한식 음식점업","area":"대치동","address":"서울특별시 강남구 선릉로86길 5-4","lon":37.5034502132565,"lat":127.050218674857007,"rate":0.0,"distance":813.0,"tag":"곱창,막창"},{"name":"일공","cate_1":"중식","cate_2":"중국음식\/중국집","cate_3":"중식 음식점업","area":"삼성동","address":"서울특별시 강남구 영동대로112길 61","lon":37.5159682145228,"lat":127.065195516909995,"rate":4.2,"distance":1134.0,"tag":"중화요리"},{"name":"노브랜드버거","cate_1":"패스트푸드","cate_2":"패스트푸드","cate_3":"피자, 햄버거, 샌드위치 및 유사 음식점업","area":"대치동","address":"서울특별시 강남구 도곡로 501","lon":37.499311289871102,"lat":127.061105597704,"rate":2.8,"distance":973.0,"tag":"패스트푸드"},{"name":"델리커리","cate_1":"별식\/퓨전요리","cate_2":"동남아음식전문점","cate_3":"기타 외국식 음식점업","area":"대치동","address":"서울특별시 강남구 테헤란로 440","lon":37.505804183147696,"lat":127.056115540456005,"rate":2.3,"distance":251.0,"tag":"인도음식"},{"name":"피자헛","cate_1":"패스트푸드","cate_2":"피자전문","cate_3":"피자, 햄버거, 샌드위치 및 유사 음식점업","area":"삼성동","address":"서울특별시 강남구 봉은사로73길 19","lon":37.513623999597399,"lat":127.050327304928999,"rate":5.0,"distance":934.0,"tag":"피자"},{"name":"유촌참치마을","cate_1":"일식\/수산물","cate_2":"참치전문점","cate_3":"일식 음식점업","area":"삼성동","address":"서울특별시 강남구 삼성로104길 8","lon":37.510681445421902,"lat":127.055307586140998,"rate":4.5,"distance":401.0,"tag":"참치회"},{"name":"이삭토스트","cate_1":"패스트푸드","cate_2":"토스트전문","cate_3":"피자, 햄버거, 샌드위치 및 유사 음식점업","area":"대치동","address":"서울특별시 강남구 삼성로 212","lon":37.499610581976597,"lat":127.065897098053,"rate":2.0,"distance":1146.0,"tag":"토스트"},{"name":"비첸향","cate_1":"중식","cate_2":"중국음식\/중국집","cate_3":"중식 음식점업","area":"삼성동","address":"서울특별시 강남구 테헤란로 517","lon":37.508608381445796,"lat":127.059744963349999,"rate":3.0,"distance":205.0,"tag":"중식"},{"name":"7번가피자","cate_1":"패스트푸드","cate_2":"패스트푸드","cate_3":"그외 기타 음식점업","area":"대치동","address":"서울특별시 강남구 역삼로 454","lon":37.502395575073599,"lat":127.056916220161995,"rate":0.0,"distance":589.0,"tag":"피자"},{"name":"핫스토리부대찌개","cate_1":"한식","cate_2":"부대찌개\/섞어찌개","cate_3":"한식 음식점업","area":"삼성동","address":"서울특별시 강남구 영동대로 513","lon":37.5118203253706,"lat":127.059139102428006,"rate":3.7,"distance":480.0,"tag":"찌개,전골"},{"name":"초원족발","cate_1":"한식","cate_2":"족발\/보쌈전문","cate_3":"한식 음식점업","area":"삼성동","address":"서울특별시 강남구 테헤란로81길 42","lon":37.509590134088803,"lat":127.056305401087002,"rate":2.0,"distance":251.0,"tag":"족발,보쌈"},{"name":"전주행복밥상","cate_1":"한식","cate_2":"한식\/백반\/한정식","cate_3":"한식 음식점업","area":"삼성동","address":"서울특별시 강남구 선릉로 514","lon":37.505595146508803,"lat":127.049150940996,"rate":3.0,"distance":793.0,"tag":"한식"},{"name":"도마다리","cate_1":"한식","cate_2":"해장국\/감자탕","cate_3":"한식 음식점업","area":"삼성동","address":"서울특별시 강남구 봉은사로72길 7","lon":37.511709312425602,"lat":127.050894510660996,"rate":5.0,"distance":756.0,"tag":"감자탕"},{"name":"로얄수제돈까스","cate_1":"양식","cate_2":"돈가스전문점","cate_3":"서양식 음식점업","area":"대치동","address":"서울특별시 강남구 영동대로85길 20-7","lon":37.507370698221898,"lat":127.061604134107995,"rate":5.0,"distance":340.0,"tag":"돈까스,우동"},{"name":"기꾸스시","cate_1":"일식\/수산물","cate_2":"음식점-초밥전문","cate_3":"일식 음식점업","area":"대치동","address":"서울특별시 강남구 테헤란로 614","lon":37.509019076085202,"lat":127.064942855919,"rate":4.0,"distance":652.0,"tag":"초밥,롤"},{"name":"피자이탈리","cate_1":"한식","cate_2":"한식\/백반\/한정식","cate_3":"한식 음식점업","area":"대치동","address":"서울특별시 강남구 삼성로61길 41","lon":37.498441596383998,"lat":127.057124280425995,"rate":5.0,"distance":1025.0,"tag":"피자"},{"name":"생각나는김밥","cate_1":"분식","cate_2":"라면김밥분식","cate_3":"분식 및 김밥 전문점","area":"대치동","address":"서울특별시 강남구 삼성로67길 25","lon":37.500570945842895,"lat":127.057482034659998,"rate":0.0,"distance":787.0,"tag":"분식"},{"name":"고기고샵","cate_1":"한식","cate_2":"한식\/백반\/한정식","cate_3":"한식 음식점업","area":"대치동","address":"서울특별시 강남구 테헤란로84길 16","lon":37.506138745318999,"lat":127.058520470266004,"rate":3.0,"distance":181.0,"tag":"육류,고기"},{"name":"60년전통 신촌황소곱창","cate_1":"한식","cate_2":"곱창\/양구이전문","cate_3":"한식 음식점업","area":"대치동","address":"서울특별시 강남구 선릉로86길 32","lon":37.503710912133698,"lat":127.052386922043993,"rate":2.9,"distance":645.0,"tag":"곱창,막창"},{"name":"뮤직아날로그","cate_1":"양식","cate_2":"정통양식\/경양식","cate_3":"서양식 음식점업","area":"삼성동","address":"서울특별시 강남구 테헤란로83길 40","lon":37.510000626705107,"lat":127.056933655161998,"rate":2.0,"distance":272.0,"tag":"양식"},{"name":"선릉김밥","cate_1":"분식","cate_2":"라면김밥분식","cate_3":"분식 및 김밥 전문점","area":"삼성동","address":"서울특별시 강남구 선릉로94길 3","lon":37.505871349337497,"lat":127.048762881526997,"rate":2.8,"distance":818.0,"tag":"분식"},{"name":"웰컴투조개골","cate_1":"일식\/수산물","cate_2":"조개구이전문","cate_3":"한식 음식점업","area":"대치동","address":"서울특별시 강남구 선릉로64길 15-5","lon":37.498428774911297,"lat":127.053267949412998,"rate":3.0,"distance":1099.0,"tag":"조개"},{"name":"어사출또","cate_1":"일식\/수산물","cate_2":"횟집","cate_3":"한식 음식점업","area":"대치동","address":"서울특별시 강남구 삼성로85길 39","lon":37.504230588077199,"lat":127.054269162911993,"rate":1.5,"distance":489.0,"tag":"회"},{"name":"봉구스밥버거","cate_1":"분식","cate_2":"스낵","cate_3":"분식 및 김밥 전문점","area":"대치동","address":"서울특별시 강남구 선릉로 420","lon":37.502486363371801,"lat":127.050253504604996,"rate":2.3,"distance":876.0,"tag":"주먹밥"},{"name":"찐정해물아귀찜","cate_1":"일식\/수산물","cate_2":"아구전문","cate_3":"한식 음식점업","area":"대치동","address":"서울특별시 강남구 선릉로72길 20","lon":37.500335467778399,"lat":127.052825419187002,"rate":0.0,"distance":922.0,"tag":"한식"},{"name":"홍미닭발","cate_1":"닭\/오리요리","cate_2":"닭내장\/닭발요리","cate_3":"한식 음식점업","area":"대치동","address":"서울특별시 강남구 선릉로72길 12","lon":37.500150739736498,"lat":127.052262271689997,"rate":3.3,"distance":964.0,"tag":"닭요리"},{"name":"428레스토랑","cate_1":"양식","cate_2":"정통양식\/경양식","cate_3":"서양식 음식점업","area":"삼성동","address":"서울특별시 강남구 봉은사로 428","lon":37.510829985751101,"lat":127.046878848252007,"rate":5.0,"distance":1023.0,"tag":"양식"},{"name":"한성양갈비구이","cate_1":"한식","cate_2":"갈비\/삼겹살","cate_3":"한식 음식점업","area":"대치동","address":"서울특별시 강남구 테헤란로70길 26","lon":37.5039286505462,"lat":127.053696151940997,"rate":4.6,"distance":547.0,"tag":"갈비"},{"name":"돈천동식당","cate_1":"양식","cate_2":"돈가스전문점","cate_3":"서양식 음식점업","area":"대치동","address":"서울특별시 강남구 도곡로63길 36","lon":37.499287954252892,"lat":127.053664243599002,"rate":4.9,"distance":997.0,"tag":"돈까스,우동"},{"name":"양가식당","cate_1":"한식","cate_2":"기타고기요리","cate_3":"한식 음식점업","area":"대치동","address":"서울특별시 강남구 테헤란로64길 17","lon":37.503939082098896,"lat":127.051626255401004,"rate":4.8,"distance":680.0,"tag":"육류,고기"},{"name":"거제지심도","cate_1":"일식\/수산물","cate_2":"수산물전문음식점-종합","cate_3":"한식 음식점업","area":"대치동","address":"서울특별시 강남구 테헤란로108길 11","lon":37.508686282034802,"lat":127.066157275422,"rate":4.3,"distance":750.0,"tag":"한식"},{"name":"롤링파스타","cate_1":"양식","cate_2":"스파게티전문점","cate_3":"서양식 음식점업","area":"대치동","address":"서울특별시 강남구 도곡로 442","lon":37.497959500802402,"lat":127.058815426699994,"rate":2.8,"distance":1081.0,"tag":"이탈리안"},{"name":"사보텐","cate_1":"일식\/수산물","cate_2":"음식점-일식","cate_3":"일식 음식점업","area":"대치동","address":"서울특별시 강남구 도곡로 504","lon":37.498801601998203,"lat":127.061598284575993,"rate":2.3,"distance":1040.0,"tag":"돈까스,우동"},{"name":"해봉","cate_1":"한식","cate_2":"기타고기요리","cate_3":"한식 음식점업","area":"대치동","address":"서울특별시 강남구 테헤란로108길 25","lon":37.507734295754496,"lat":127.066553701136002,"rate":3.2,"distance":776.0,"tag":"육류,고기"},{"name":"진대감","cate_1":"한식","cate_2":"기타고기요리","cate_3":"한식 음식점업","area":"대치동","address":"서울특별시 강남구 테헤란로70길 25","lon":37.504020921069099,"lat":127.053966432204007,"rate":4.6,"distance":524.0,"tag":"육류,고기"},{"name":"KFC코엑스몰","cate_1":"패스트푸드","cate_2":"패스트푸드","cate_3":"그외 기타 음식점업","area":"삼성동","address":"서울특별시 강남구 영동대로 513","lon":37.5118203253706,"lat":127.059139102428006,"rate":1.9,"distance":480.0,"tag":"패스트푸드"},{"name":"수담한정식","cate_1":"한식","cate_2":"한식\/백반\/한정식","cate_3":"한식 음식점업","area":"삼성동","address":"서울특별시 강남구 봉은사로 418","lon":37.510498243528495,"lat":127.045966861468003,"rate":3.4,"distance":1088.0,"tag":"한정식"},{"name":"몽중헌","cate_1":"중식","cate_2":"중국음식\/중국집","cate_3":"중식 음식점업","area":"대치동","address":"서울특별시 강남구 영동대로 325","lon":37.503355569703999,"lat":127.065465897932995,"rate":3.7,"distance":830.0,"tag":"중화요리"},{"name":"산","cate_1":"일식\/수산물","cate_2":"음식점-일식","cate_3":"일식 음식점업","area":"삼성동","address":"서울특별시 강남구 봉은사로 445","lon":37.511851465595903,"lat":127.048404206517006,"rate":0.0,"distance":949.0,"tag":"일식"},{"name":"청담동장독대김치찌개","cate_1":"한식","cate_2":"부대찌개\/섞어찌개","cate_3":"한식 음식점업","area":"대치동","address":"서울특별시 강남구 테헤란로64길 24","lon":37.503324791784202,"lat":127.051430444003003,"rate":3.8,"distance":737.0,"tag":"찌개,전골"},{"name":"얼린돌접시","cate_1":"일식\/수산물","cate_2":"횟집","cate_3":"한식 음식점업","area":"대치동","address":"서울특별시 강남구 삼성로58길 7","lon":37.498667804145804,"lat":127.061769599979002,"rate":0.0,"distance":1059.0,"tag":"회"},{"name":"디퀸즈","cate_1":"양식","cate_2":"기타전문서양음식점","cate_3":"서양식 음식점업","area":"삼성동","address":"서울특별시 강남구 영동대로 513","lon":37.5118203253706,"lat":127.059139102428006,"rate":2.4,"distance":480.0,"tag":"양식"},{"name":"동호숯불바베큐","cate_1":"닭\/오리요리","cate_2":"후라이드\/양념치킨","cate_3":"치킨 전문점","area":"대치동","address":"서울특별시 강남구 역삼로 468","lon":37.5027857991034,"lat":127.058392924513001,"rate":0.0,"distance":543.0,"tag":"치킨"},{"name":"브라운돈까스","cate_1":"양식","cate_2":"돈가스전문점","cate_3":"서양식 음식점업","area":"삼성동","address":"서울특별시 강남구 봉은사로 474","lon":37.512357988307599,"lat":127.052006131015006,"rate":3.0,"distance":729.0,"tag":"돈까스,우동"},{"name":"초량돼지","cate_1":"한식","cate_2":"갈비\/삼겹살","cate_3":"한식 음식점업","area":"대치동","address":"서울특별시 강남구 테헤란로108길 12","lon":37.508601885920598,"lat":127.065739823306004,"rate":2.9,"distance":712.0,"tag":"육류,고기"},{"name":"더참치","cate_1":"일식\/수산물","cate_2":"참치전문점","cate_3":"일식 음식점업","area":"대치동","address":"서울특별시 강남구 삼성로86길 26","lon":37.506066937006402,"lat":127.059686355337007,"rate":4.7,"distance":244.0,"tag":"참치회"},{"name":"천매도","cate_1":"일식\/수산물","cate_2":"음식점-일식","cate_3":"일식 음식점업","area":"대치동","address":"서울특별시 강남구 삼성로 212","lon":37.499610581976597,"lat":127.065897098053,"rate":1.0,"distance":1146.0,"tag":"일식집"},{"name":"맥도날드","cate_1":"패스트푸드","cate_2":"패스트푸드","cate_3":"그외 기타 음식점업","area":"삼성동","address":"서울특별시 강남구 영동대로 513","lon":37.5118203253706,"lat":127.059139102428006,"rate":2.3,"distance":480.0,"tag":"패스트푸드"},{"name":"삼정복집","cate_1":"일식\/수산물","cate_2":"복전문","cate_3":"한식 음식점업","area":"삼성동","address":"서울특별시 강남구 봉은사로 626","lon":37.514615383677601,"lat":127.063900221245007,"rate":1.0,"distance":945.0,"tag":"복어"},{"name":"철그릴","cate_1":"별식\/퓨전요리","cate_2":"철판구이요리전문","cate_3":"그외 기타 음식점업","area":"삼성동","address":"서울특별시 강남구 테헤란로 517","lon":37.508608381445796,"lat":127.059744963349999,"rate":1.5,"distance":205.0,"tag":"철판요리"},{"name":"나의가야","cate_1":"한식","cate_2":"한식\/백반\/한정식","cate_3":"한식 음식점업","area":"삼성동","address":"서울특별시 강남구 테헤란로 517","lon":37.508608381445796,"lat":127.059744963349999,"rate":5.0,"distance":205.0,"tag":"찌개,전골"},{"name":"홍대개미","cate_1":"양식","cate_2":"스테이크전문점","cate_3":"서양식 음식점업","area":"삼성동","address":"서울특별시 강남구 테헤란로 521","lon":37.509184357946893,"lat":127.060789660533999,"rate":1.8,"distance":317.0,"tag":"퓨전일식"},{"name":"유정삼겹","cate_1":"한식","cate_2":"갈비\/삼겹살","cate_3":"한식 음식점업","area":"대치동","address":"서울특별시 강남구 테헤란로 418","lon":37.505088117664997,"lat":127.052211169518003,"rate":4.0,"distance":566.0,"tag":"삼겹살"},{"name":"최가네버섯샤브매운탕칼국수","cate_1":"일식\/수산물","cate_2":"매운탕전문","cate_3":"한식 음식점업","area":"대치동","address":"서울특별시 강남구 선릉로64길 20","lon":37.497938498177497,"lat":127.053930077708998,"rate":4.2,"distance":1131.0,"tag":"샤브샤브"},{"name":"광화문미진","cate_1":"한식","cate_2":"한식\/백반\/한정식","cate_3":"한식 음식점업","area":"삼성동","address":"서울특별시 강남구 영동대로 513","lon":37.5118203253706,"lat":127.059139102428006,"rate":2.1,"distance":480.0,"tag":"한식"},{"name":"카츠젠","cate_1":"양식","cate_2":"돈가스전문점","cate_3":"서양식 음식점업","area":"대치동","address":"서울특별시 강남구 선릉로86길 6","lon":37.503009013577902,"lat":127.050258194080996,"rate":4.0,"distance":839.0,"tag":"분식"},{"name":"3일소고기국밥","cate_1":"한식","cate_2":"해장국\/감자탕","cate_3":"한식 음식점업","area":"삼성동","address":"서울특별시 강남구 봉은사로63길 3","lon":37.511678441489103,"lat":127.047060352068002,"rate":3.0,"distance":1045.0,"tag":"국밥"},{"name":"춘천닭갈비","cate_1":"닭\/오리요리","cate_2":"닭갈비전문","cate_3":"한식 음식점업","area":"삼성동","address":"서울특별시 강남구 영동대로 513","lon":37.5118203253706,"lat":127.059139102428006,"rate":4.5,"distance":480.0,"tag":"닭요리"},{"name":"이두부야순두부찌개","cate_1":"한식","cate_2":"두부요리전문","cate_3":"한식 음식점업","area":"대치동","address":"서울특별시 강남구 선릉로 420","lon":37.502486363371801,"lat":127.050253504604996,"rate":0.0,"distance":876.0,"tag":"두부"},{"name":"돈까스짱","cate_1":"양식","cate_2":"돈가스전문점","cate_3":"서양식 음식점업","area":"대치동","address":"서울특별시 강남구 삼성로 212","lon":37.499610581976597,"lat":127.065897098053,"rate":0.0,"distance":1146.0,"tag":"돈까스,우동"},{"name":"리김밥","cate_1":"분식","cate_2":"라면김밥분식","cate_3":"분식 및 김밥 전문점","area":"삼성동","address":"서울특별시 강남구 영동대로 513","lon":37.5118203253706,"lat":127.059139102428006,"rate":5.0,"distance":480.0,"tag":"분식"},{"name":"황태마을","cate_1":"한식","cate_2":"황태전문","cate_3":"한식 음식점업","area":"대치동","address":"서울특별시 강남구 테헤란로78길 14-6","lon":37.505317267404493,"lat":127.054945389173994,"rate":5.0,"distance":359.0,"tag":"해물,생선"},{"name":"브라운치킨삼성점","cate_1":"닭\/오리요리","cate_2":"후라이드\/양념치킨","cate_3":"치킨 전문점","area":"대치동","address":"서울특별시 강남구 삼성로86길 28","lon":37.506104325954198,"lat":127.05985554422,"rate":3.0,"distance":252.0,"tag":"치킨"},{"name":"삼군김치찌개","cate_1":"한식","cate_2":"부대찌개\/섞어찌개","cate_3":"한식 음식점업","area":"대치동","address":"서울특별시 강남구 선릉로86길 40-3","lon":37.503789246559997,"lat":127.053166333549996,"rate":2.3,"distance":590.0,"tag":"찌개,전골"},{"name":"라이프","cate_1":"한식","cate_2":"기타고기요리","cate_3":"한식 음식점업","area":"삼성동","address":"서울특별시 강남구 영동대로96길 26","lon":37.510937329865897,"lat":127.064817124889004,"rate":3.3,"distance":722.0,"tag":"육류,고기"},{"name":"중독","cate_1":"분식","cate_2":"떡볶이전문","cate_3":"분식 및 김밥 전문점","area":"삼성동","address":"서울특별시 강남구 테헤란로 423","lon":37.506166433398199,"lat":127.052966652655002,"rate":3.8,"distance":454.0,"tag":"떡볶이"},{"name":"가츠몽","cate_1":"양식","cate_2":"돈가스전문점","cate_3":"양식 음식점업","area":"삼성동","address":"서울특별시 강남구 봉은사로103길 6","lon":37.515003856470202,"lat":127.061757425652999,"rate":2.3,"distance":891.0,"tag":"돈까스,우동"},{"name":"본가스시","cate_1":"일식\/수산물","cate_2":"음식점-초밥전문","cate_3":"일식 음식점업","area":"삼성동","address":"서울특별시 강남구 테헤란로 517","lon":37.508608381445796,"lat":127.059744963349999,"rate":2.0,"distance":205.0,"tag":"초밥,롤"},{"name":"숯칼","cate_1":"닭\/오리요리","cate_2":"닭갈비전문","cate_3":"한식 전문점업","area":"삼성동","address":"서울특별시 강남구 삼성로91길 38","lon":37.506536916809502,"lat":127.053097699424001,"rate":4.7,"distance":430.0,"tag":"닭요리"},{"name":"남로명가","cate_1":"한식","cate_2":"갈비\/삼겹살","cate_3":"한식 음식점업","area":"삼성동","address":"서울특별시 강남구 영동대로106길 33","lon":37.514155353139294,"lat":127.063838096780998,"rate":5.0,"distance":901.0,"tag":"갈비"},{"name":"뽕사부","cate_1":"중식","cate_2":"중국음식\/중국집","cate_3":"중식 음식점업","area":"삼성동","address":"서울특별시 강남구 삼성로104길 16","lon":37.510985002650493,"lat":127.056084236939,"rate":3.0,"distance":400.0,"tag":"중화요리"},{"name":"909버거앤파스타","cate_1":"양식","cate_2":"스파게티전문점","cate_3":"서양식 음식점업","area":"대치동","address":"서울특별시 강남구 역삼로 420","lon":37.500966596830402,"lat":127.052873995444997,"rate":4.6,"distance":859.0,"tag":"햄버거"},{"name":"다정한떡볶이","cate_1":"분식","cate_2":"떡볶이전문","cate_3":"분식 및 김밥 전문점","area":"삼성동","address":"서울특별시 강남구 테헤란로 517","lon":37.508608381445796,"lat":127.059744963349999,"rate":0.0,"distance":205.0,"tag":"떡볶이"},{"name":"까","cate_1":"한식","cate_2":"한식\/백반\/한정식","cate_3":"한식 음식점업","area":"대치동","address":"서울특별시 강남구 역삼로 560","lon":37.504798429458496,"lat":127.064475224171005,"rate":0.0,"distance":672.0,"tag":"한식"},{"name":"운좋은횟집","cate_1":"일식\/수산물","cate_2":"횟집","cate_3":"한식 음식점업","area":"삼성동","address":"서울특별시 강남구 삼성로91길 28","lon":37.506768682656997,"lat":127.053909136475994,"rate":0.0,"distance":354.0,"tag":"회"},{"name":"이태리부대찌개삼성점","cate_1":"한식","cate_2":"부대찌개\/섞어찌개","cate_3":"한식 음식점업","area":"삼성동","address":"서울특별시 강남구 삼성로104길 16","lon":37.510985002650493,"lat":127.056084236939,"rate":3.6,"distance":400.0,"tag":"찌개,전골"},{"name":"시골집","cate_1":"한식","cate_2":"한식\/백반\/한정식","cate_3":"한식 음식점업","area":"대치동","address":"서울특별시 강남구 삼성로64길 41","lon":37.500998545100899,"lat":127.063663094971005,"rate":5.0,"distance":904.0,"tag":"한식"},{"name":"쭝일아찌5단계빨강떡볶이","cate_1":"분식","cate_2":"떡볶이전문","cate_3":"분식 및 김밥 전문점","area":"삼성동","address":"서울특별시 강남구 봉은사로67길 30","lon":37.513695703944698,"lat":127.048041440985003,"rate":2.7,"distance":1090.0,"tag":"떡볶이"},{"name":"대치정육식당","cate_1":"한식","cate_2":"갈비\/삼겹살","cate_3":"한식 음식점업","area":"대치동","address":"서울특별시 강남구 역삼로 450","lon":37.502220146923101,"lat":127.056386859800995,"rate":3.8,"distance":615.0,"tag":"육류,고기"},{"name":"홍대개미파르나스몰점","cate_1":"한식","cate_2":"한식\/백반\/한정식","cate_3":"한식 음식점업","area":"삼성동","address":"서울특별시 강남구 테헤란로 521","lon":37.509184357946893,"lat":127.060789660533999,"rate":1.8,"distance":317.0,"tag":"퓨전일식"},{"name":"하드워커","cate_1":"한식","cate_2":"한식\/백반\/한정식","cate_3":"한식 음식점업","area":"삼성동","address":"서울특별시 강남구 삼성로100길 23-30","lon":37.511090974739801,"lat":127.056942559167993,"rate":4.0,"distance":390.0,"tag":"피자"},{"name":"히라메키","cate_1":"일식\/수산물","cate_2":"음식점-일식","cate_3":"일식 음식점업","area":"삼성동","address":"서울특별시 강남구 테헤란로81길 32","lon":37.509033884798498,"lat":127.056606489006995,"rate":4.2,"distance":185.0,"tag":"퓨전일식"},{"name":"엄마손","cate_1":"한식","cate_2":"한식\/백반\/한정식","cate_3":"한식 음식점업","area":"삼성동","address":"서울특별시 강남구 테헤란로107길 11","lon":37.510425479926496,"lat":127.065038423418997,"rate":0.0,"distance":712.0,"tag":"분식"},{"name":"호봉토스트","cate_1":"패스트푸드","cate_2":"토스트전문","cate_3":"피자, 햄버거, 샌드위치 및 유사 음식점업","area":"삼성동","address":"서울특별시 강남구 영동대로 513","lon":37.5118203253706,"lat":127.059139102428006,"rate":4.0,"distance":480.0,"tag":"토스트"},{"name":"아부리","cate_1":"한식","cate_2":"한식\/백반\/한정식","cate_3":"한식 음식점업","area":"대치동","address":"서울특별시 강남구 선릉로86길 31","lon":37.504203448224899,"lat":127.052007459091001,"rate":5.0,"distance":636.0,"tag":"일식"},{"name":"오목집","cate_1":"한식","cate_2":"한식\/백반\/한정식","cate_3":"한식 음식점업","area":"대치동","address":"서울특별시 강남구 선릉로62길 19","lon":37.497651456811902,"lat":127.054092028406004,"rate":4.5,"distance":1158.0,"tag":"족발,보쌈"},{"name":"바오미엔","cate_1":"중식","cate_2":"중국음식\/중국집","cate_3":"중식 음식점업","area":"대치동","address":"서울특별시 강남구 선릉로72길 26","lon":37.500501267610296,"lat":127.053275711707997,"rate":1.0,"distance":888.0,"tag":"중식"},{"name":"허머스키친","cate_1":"양식","cate_2":"정통양식\/경양식","cate_3":"서양식 음식점업","area":"삼성동","address":"서울특별시 강남구 테헤란로 521","lon":37.509193547462402,"lat":127.060812167373001,"rate":3.7,"distance":319.0,"tag":"아시아음식"},{"name":"얌샘김밥","cate_1":"분식","cate_2":"라면김밥분식","cate_3":"분식 및 김밥 전문점","area":"삼성동","address":"서울특별시 강남구 봉은사로 629","lon":37.5151671240436,"lat":127.064164815064998,"rate":3.1,"distance":1009.0,"tag":"분식"},{"name":"135튀김집","cate_1":"분식","cate_2":"라면김밥분식","cate_3":"분식 및 김밥 전문점","area":"대치동","address":"서울특별시 강남구 도곡로 510","lon":37.499013314784896,"lat":127.062161107920005,"rate":3.3,"distance":1035.0,"tag":"분식"},{"name":"키와미","cate_1":"일식\/수산물","cate_2":"음식점-일식","cate_3":"일식 음식점업","area":"대치동","address":"서울특별시 강남구 삼성로 238","lon":37.498628711149401,"lat":127.061385569604994,"rate":4.5,"distance":1053.0,"tag":"일본식라면"},{"name":"바비분식","cate_1":"분식","cate_2":"라면김밥분식","cate_3":"분식 및 김밥 전문점","area":"삼성동","address":"서울특별시 강남구 영동대로 513","lon":37.5118203253706,"lat":127.059139102428006,"rate":5.0,"distance":480.0,"tag":"분식"},{"name":"흑산도홍어","cate_1":"패스트푸드","cate_2":"패스트푸드","cate_3":"그외 기타 음식점업","area":"삼성동","address":"서울특별시 강남구 영동대로 513","lon":37.5118203253706,"lat":127.059139102428006,"rate":0.0,"distance":480.0,"tag":"해물,생선"},{"name":"삼다족발","cate_1":"한식","cate_2":"족발\/보쌈전문","cate_3":"한식 음식점업","area":"삼성동","address":"서울특별시 강남구 봉은사로 616","lon":37.514324870636699,"lat":127.062489879015999,"rate":3.7,"distance":852.0,"tag":"족발,보쌈"},{"name":"미드나잇인서울","cate_1":"패스트푸드","cate_2":"패스트푸드","cate_3":"그외 기타 음식점업","area":"삼성동","address":"서울특별시 강남구 영동대로 513","lon":37.5118203253706,"lat":127.059139102428006,"rate":0.0,"distance":480.0,"tag":"패스트푸드"},{"name":"일미식당","cate_1":"한식","cate_2":"한식\/백반\/한정식","cate_3":"한식 음식점업","area":"대치동","address":"서울특별시 강남구 삼성로72길 64","lon":37.500788812209997,"lat":127.063349041731001,"rate":0.0,"distance":908.0,"tag":"한식"},{"name":"복라이","cate_1":"중식","cate_2":"중국음식\/중국집","cate_3":"중식 음식점업","area":"삼성동","address":"서울특별시 강남구 테헤란로63길 8","lon":37.505849505042796,"lat":127.050527592999998,"rate":3.3,"distance":669.0,"tag":"중화요리"},{"name":"풍년참숯불갈비","cate_1":"한식","cate_2":"갈비\/삼겹살","cate_3":"한식 음식점업","area":"삼성동","address":"서울특별시 강남구 봉은사로 616","lon":37.514324870636699,"lat":127.062489879015999,"rate":4.3,"distance":852.0,"tag":"오리"},{"name":"부부식당","cate_1":"한식","cate_2":"한식\/백반\/한정식","cate_3":"한식 음식점업","area":"대치동","address":"서울특별시 강남구 삼성로 343","lon":37.502104309046999,"lat":127.058808640075995,"rate":0.0,"distance":623.0,"tag":"한식"},{"name":"까","cate_1":"한식","cate_2":"한식\/백반\/한정식","cate_3":"한식 음식점업","area":"대치동","address":"서울특별시 강남구 선릉로72길 10-16","lon":37.4992597820114,"lat":127.052397936830999,"rate":0.0,"distance":1046.0,"tag":"한식"},{"name":"차호랑","cate_1":"한식","cate_2":"한식\/백반\/한정식","cate_3":"한식 음식점업","area":"대치동","address":"서울특별시 강남구 테헤란로78길 26","lon":37.504504081477798,"lat":127.055792600448996,"rate":3.2,"distance":390.0,"tag":"한식"},{"name":"어가횟집","cate_1":"일식\/수산물","cate_2":"횟집","cate_3":"한식 음식점업","area":"삼성동","address":"서울특별시 강남구 선릉로 570","lon":37.509413573994401,"lat":127.044431058377,"rate":5.0,"distance":1192.0,"tag":"회"},{"name":"1.2.3최유강중국집","cate_1":"중식","cate_2":"중국음식\/중국집","cate_3":"중식 음식점업","area":"대치동","address":"서울특별시 강남구 삼성로85길 32","lon":37.504702077282403,"lat":127.054636455438995,"rate":2.2,"distance":428.0,"tag":"중화요리"},{"name":"파파밸리피자","cate_1":"한식","cate_2":"한식\/백반\/한정식","cate_3":"한식 음식점업","area":"삼성동","address":"서울특별시 강남구 영동대로112길 9","lon":37.515186497379403,"lat":127.060929370717005,"rate":2.3,"distance":884.0,"tag":"피자"},{"name":"동의명가칼국수","cate_1":"분식","cate_2":"국수\/만두\/칼국수","cate_3":"분식 및 김밥 전문점","area":"삼성동","address":"서울특별시 강남구 영동대로114길 56","lon":37.516617410216703,"lat":127.064112767897001,"rate":0.0,"distance":1144.0,"tag":"국수"},{"name":"해우리","cate_1":"한식","cate_2":"한식\/백반\/한정식","cate_3":"한식 음식점업","area":"삼성동","address":"서울특별시 강남구 테헤란로 415","lon":37.505776413656797,"lat":127.051523839748995,"rate":5.0,"distance":588.0,"tag":"한정식"},{"name":"지구당","cate_1":"한식","cate_2":"한식\/백반\/한정식","cate_3":"한식 음식점업","area":"삼성동","address":"서울특별시 강남구 테헤란로 409","lon":37.505352702147199,"lat":127.050375539320001,"rate":2.4,"distance":700.0,"tag":"일식"},{"name":"JVL부대찌개삼성본점","cate_1":"한식","cate_2":"부대찌개\/섞어찌개","cate_3":"한식 음식점업","area":"삼성동","address":"서울특별시 강남구 테헤란로81길 46","lon":37.509769965600697,"lat":127.056257892765004,"rate":3.3,"distance":271.0,"tag":"찌개,전골"},{"name":"전우소고기해장국","cate_1":"한식","cate_2":"해장국\/감자탕","cate_3":"한식 음식점업","area":"삼성동","address":"서울특별시 강남구 테헤란로81길 46-3","lon":37.509923129608602,"lat":127.056255964366002,"rate":4.6,"distance":286.0,"tag":"해장국"},{"name":"더스푼","cate_1":"한식","cate_2":"한식\/백반\/한정식","cate_3":"한식 음식점업","area":"대치동","address":"서울특별시 강남구 역삼로 517","lon":37.503662436852899,"lat":127.059852234901001,"rate":1.0,"distance":480.0,"tag":"한식"},{"name":"제일제면소","cate_1":"분식","cate_2":"국수\/만두\/칼국수","cate_3":"분식 및 김밥 전문점","area":"삼성동","address":"서울특별시 강남구 영동대로 513","lon":37.5118203253706,"lat":127.059139102428006,"rate":2.0,"distance":480.0,"tag":"국수"},{"name":"육족장","cate_1":"한식","cate_2":"한식\/백반\/한정식","cate_3":"한식 음식점업","area":"삼성동","address":"서울특별시 강남구 봉은사로 465","lon":37.512480686249901,"lat":127.050454906534995,"rate":0.0,"distance":839.0,"tag":"족발,보쌈"},{"name":"본죽&비빔밥cafe선릉점","cate_1":"별식\/퓨전요리","cate_2":"죽전문점","cate_3":"한식 음식점업","area":"대치동","address":"서울특별시 강남구 선릉로 424","lon":37.502899170118496,"lat":127.050044694901004,"rate":3.1,"distance":861.0,"tag":"죽"},{"name":"방콕9","cate_1":"별식\/퓨전요리","cate_2":"동남아음식전문점","cate_3":"기타 외국식 음식점업","area":"삼성동","address":"서울특별시 강남구 영동대로 513","lon":37.5118203253706,"lat":127.059139102428006,"rate":2.7,"distance":480.0,"tag":"동남아음식"},{"name":"맛나","cate_1":"한식","cate_2":"한식\/백반\/한정식","cate_3":"한식 음식점업","area":"삼성동","address":"서울특별시 강남구 테헤란로107길 11","lon":37.510425479926496,"lat":127.065038423418997,"rate":0.0,"distance":712.0,"tag":"분식"},{"name":"영지식당","cate_1":"한식","cate_2":"한식\/백반\/한정식","cate_3":"한식 음식점업","area":"대치동","address":"서울특별시 강남구 삼성로 212","lon":37.499610581976597,"lat":127.065897098053,"rate":4.8,"distance":1146.0,"tag":"분식"},{"name":"꼬망쎄","cate_1":"한식","cate_2":"한식\/백반\/한정식","cate_3":"한식 음식점업","area":"대치동","address":"서울특별시 강남구 삼성로63길 9","lon":37.499783867979602,"lat":127.059346697153003,"rate":0.0,"distance":885.0,"tag":"도시락"},{"name":"장진참치앤초밥","cate_1":"일식\/수산물","cate_2":"참치전문점","cate_3":"일식 음식점업","area":"대치동","address":"서울특별시 강남구 선릉로86길 16","lon":37.503258272613294,"lat":127.051001502299997,"rate":3.7,"distance":771.0,"tag":"참치회"},{"name":"살루쪼","cate_1":"양식","cate_2":"정통양식\/경양식","cate_3":"서양식 음식점업","area":"삼성동","address":"서울특별시 강남구 봉은사로57길 6","lon":37.511286703807102,"lat":127.045413883639995,"rate":4.4,"distance":1162.0,"tag":"이탈리안"},{"name":"참치명인","cate_1":"일식\/수산물","cate_2":"참치전문점","cate_3":"일식 음식점업","area":"대치동","address":"서울특별시 강남구 테헤란로84길 16","lon":37.506138745318999,"lat":127.058520470266004,"rate":4.0,"distance":181.0,"tag":"참치회"},{"name":"아리노마마","cate_1":"일식","cate_2":"음식점-일식","cate_3":"일식 음식점업","area":"대치동","address":"서울특별시 강남구 도곡로63길 20","lon":37.498417640101103,"lat":127.054127601229993,"rate":3.5,"distance":1075.0,"tag":"일식"},{"name":"봉노가","cate_1":"한식","cate_2":"기타고기요리","cate_3":"한식 음식점업","area":"대치동","address":"서울특별시 강남구 선릉로86길 5-4","lon":37.5034502132565,"lat":127.050218674857007,"rate":2.0,"distance":813.0,"tag":"육류,고기"},{"name":"카토멘","cate_1":"일식","cate_2":"음식점-일식","cate_3":"일식 음식점업","area":"대치동","address":"서울특별시 강남구 삼성로85길 39","lon":37.504221578426197,"lat":127.054269276563005,"rate":3.6,"distance":490.0,"tag":"일본식라면"},{"name":"마포만두","cate_1":"분식","cate_2":"국수\/만두\/칼국수","cate_3":"분식 및 김밥 전문점","area":"대치동","address":"서울특별시 강남구 선릉로86길 8","lon":37.503055880061197,"lat":127.050483801514005,"rate":1.8,"distance":820.0,"tag":"분식"},{"name":"홍대포","cate_1":"일식\/수산물","cate_2":"수산물전문음식점-종합점","cate_3":"한식 음식점업","area":"대치동","address":"서울특별시 강남구 테헤란로70길 16","lon":37.504393890075498,"lat":127.053283110318006,"rate":2.8,"distance":536.0,"tag":"해물,생선"},{"name":"코엑스뽀모도로","cate_1":"양식","cate_2":"정통양식\/경양식","cate_3":"서양식 음식점업","area":"삼성동","address":"서울특별시 강남구 영동대로 513","lon":37.5118203253706,"lat":127.059139102428006,"rate":2.0,"distance":480.0,"tag":"이탈리안"},{"name":"경원수산2호점","cate_1":"일식\/수산물","cate_2":"수산물전문음식점-종합","cate_3":"한식 음식점업","area":"삼성동","address":"서울특별시 강남구 삼성로100길 23-15","lon":37.511008352646201,"lat":127.056751307265998,"rate":5.0,"distance":384.0,"tag":"회"},{"name":"쟌슨빌부대찌개","cate_1":"한식","cate_2":"부대찌개\/섞어찌개","cate_3":"한식 음식점업","area":"대치동","address":"서울특별시 강남구 선릉로90길 72","lon":37.5055520611944,"lat":127.055010291996993,"rate":4.3,"distance":336.0,"tag":"찌개,전골"},{"name":"앤바","cate_1":"양식","cate_2":"정통양식\/경양식","cate_3":"서양식 음식점업","area":"대치동","address":"서울특별시 강남구 삼성로85길 33","lon":37.504279981146098,"lat":127.054811431542007,"rate":0.0,"distance":456.0,"tag":"양식"},{"name":"강남교자","cate_1":"한식","cate_2":"한식\/백반\/한정식","cate_3":"한식 음식점업","area":"대치동","address":"서울특별시 강남구 삼성로85길 32","lon":37.504702077282403,"lat":127.054636455438995,"rate":0.0,"distance":428.0,"tag":"국수"},{"name":"치찌중화식탁","cate_1":"중식","cate_2":"중국음식\/중국집","cate_3":"중식 음식점업","area":"대치동","address":"서울특별시 강남구 영동대로86길 28","lon":37.508166313362096,"lat":127.066491767361995,"rate":2.0,"distance":772.0,"tag":"중화요리"},{"name":"경성옥","cate_1":"한식","cate_2":"해장국\/감자탕","cate_3":"한식 음식점업","area":"대치동","address":"서울특별시 강남구 역삼로 555","lon":37.504996779519693,"lat":127.063353023440996,"rate":5.0,"distance":575.0,"tag":"한식"},{"name":"착한무안뻘낙지","cate_1":"일식\/수산물","cate_2":"낙지\/오징어","cate_3":"한식 음식점업","area":"삼성동","address":"서울특별시 강남구 봉은사로108길 19","lon":37.513771791483499,"lat":127.064329290310994,"rate":0.0,"distance":894.0,"tag":"해물,생선"},{"name":"힘난다","cate_1":"패스트푸드","cate_2":"패스트푸드","cate_3":"피자, 햄버거, 샌드위치 및 유사 음식점업","area":"삼성동","address":"서울특별시 강남구 영동대로 513","lon":37.5118203253706,"lat":127.059139102428006,"rate":4.7,"distance":480.0,"tag":"햄버거"},{"name":"국제시장해장국","cate_1":"한식","cate_2":"해장국\/감자탕","cate_3":"한식 음식점업","area":"대치동","address":"서울특별시 강남구 선릉로86길 42","lon":37.503941866680094,"lat":127.053096544971993,"rate":3.0,"distance":582.0,"tag":"해장국"},{"name":"사이공키친","cate_1":"별식\/퓨전요리","cate_2":"동남아음식전문점","cate_3":"기타 외국식 음식점업","area":"대치동","address":"서울특별시 강남구 영동대로85길 20-3","lon":37.507182663161501,"lat":127.061753526849998,"rate":5.0,"distance":356.0,"tag":"베트남음식"},{"name":"햇살소반","cate_1":"한식","cate_2":"한식\/백반\/한정식","cate_3":"한식 음식점업","area":"대치동","address":"서울특별시 강남구 테헤란로78길 16","lon":37.505049963096702,"lat":127.055322000640004,"rate":5.0,"distance":360.0,"tag":"한식"},{"name":"동경규동","cate_1":"일식\/수산물","cate_2":"음식점-일식","cate_3":"일식 음식점업","area":"대치동","address":"서울특별시 강남구 선릉로 420","lon":37.502486363371801,"lat":127.050253504604996,"rate":3.3,"distance":876.0,"tag":"일식"},{"name":"동래","cate_1":"일식\/수산물","cate_2":"복전문","cate_3":"한식 음식점업","area":"대치동","address":"서울특별시 강남구 테헤란로84길 13","lon":37.5063392109859,"lat":127.058800716646999,"rate":3.6,"distance":172.0,"tag":"복어"},{"name":"남다른감자탕","cate_1":"한식","cate_2":"해장국\/감자탕","cate_3":"한식 음식점업","area":"대치동","address":"서울특별시 강남구 테헤란로92길 13","lon":37.507152848845003,"lat":127.061403268825003,"rate":4.5,"distance":326.0,"tag":"감자탕"},{"name":"신라다랑원","cate_1":"일식\/수산물","cate_2":"음식점-일식","cate_3":"일식 음식점업","area":"삼성동","address":"서울특별시 강남구 봉은사로68길 8","lon":37.511286412891799,"lat":127.049847915041994,"rate":4.1,"distance":807.0,"tag":"일식"},{"name":"홍수계찜닭","cate_1":"닭\/오리요리","cate_2":"찜닭전문점","cate_3":"한식 음식점업","area":"삼성동","address":"서울특별시 강남구 테헤란로87길 46","lon":37.510974766173398,"lat":127.058188259504007,"rate":3.8,"distance":372.0,"tag":"닭요리"},{"name":"아선재","cate_1":"한식","cate_2":"한식\/백반\/한정식","cate_3":"한식 음식점업","area":"대치동","address":"서울특별시 강남구 영동대로 333","lon":37.504143678082798,"lat":127.064856631981996,"rate":2.5,"distance":737.0,"tag":"한정식"},{"name":"뱅앤로스","cate_1":"한식","cate_2":"기타고기요리","cate_3":"한식 음식점업","area":"대치동","address":"서울특별시 강남구 삼성로 434","lon":37.5056903281506,"lat":127.057655196286007,"rate":5.0,"distance":218.0,"tag":"육류,고기"},{"name":"고피자","cate_1":"패스트푸드","cate_2":"피자전문","cate_3":"피자, 햄버거, 샌드위치 및 유사 음식점업","area":"대치동","address":"서울특별시 강남구 선릉로64길 11-2","lon":37.498041269008702,"lat":127.053261532356004,"rate":3.7,"distance":1139.0,"tag":"피자"},{"name":"참한우곱창","cate_1":"한식","cate_2":"곱창\/양구이전문","cate_3":"한식 음식점업","area":"대치동","address":"서울특별시 강남구 테헤란로88길 10","lon":37.506839967079998,"lat":127.059450446396994,"rate":3.0,"distance":174.0,"tag":"곱창,막창"},{"name":"남산노포식당","cate_1":"한식","cate_2":"곱창\/양구이전문","cate_3":"한식 음식점업","area":"대치동","address":"서울특별시 강남구 선릉로86길 24","lon":37.503461934084093,"lat":127.051677531484003,"rate":3.8,"distance":710.0,"tag":"곱창,막창"},{"name":"유리카모메","cate_1":"일식\/수산물","cate_2":"음식점-일식","cate_3":"일식 음식점업","area":"삼성동","address":"서울특별시 강남구 삼성로95길 24","lon":37.507686216985,"lat":127.053716584506006,"rate":3.0,"distance":357.0,"tag":"일식"},{"name":"조개천국","cate_1":"일식\/수산물","cate_2":"조개구이전문","cate_3":"한식 음식점업","area":"대치동","address":"서울특별시 강남구 선릉로86길 42","lon":37.503941866680094,"lat":127.053096544971993,"rate":3.5,"distance":582.0,"tag":"조개"},{"name":"더덮밥집","cate_1":"일식\/수산물","cate_2":"음식점-일식","cate_3":"일식 음식점업","area":"대치동","address":"서울특별시 강남구 테헤란로92길 19","lon":37.506748941445501,"lat":127.061600606484006,"rate":0.0,"distance":353.0,"tag":"일식"},{"name":"송옥 대치사거리점","cate_1":"분식","cate_2":"라면김밥분식","cate_3":"한식 음식점업","area":"대치동","address":"서울특별시 강남구 역삼로 506","lon":37.503099876228298,"lat":127.059361646034006,"rate":1.5,"distance":525.0,"tag":"분식"},{"name":"수복방점","cate_1":"한식","cate_2":"갈비\/삼겹살","cate_3":"한식 음식점업","area":"대치동","address":"서울특별시 강남구 선릉로86길 44-5","lon":37.5037388136926,"lat":127.053619376898993,"rate":4.7,"distance":568.0,"tag":"갈비"},{"name":"청담동마녀김밥","cate_1":"분식","cate_2":"라면김밥분식","cate_3":"분식 및 김밥 전문점","area":"대치동","address":"서울특별시 강남구 삼성로85길 11","lon":37.5045881509052,"lat":127.056164781275996,"rate":2.9,"distance":368.0,"tag":"분식"},{"name":"모구모구돈부리","cate_1":"일식\/수산물","cate_2":"음식점-일식","cate_3":"일식 음식점업","area":"대치동","address":"서울특별시 강남구 영동대로85길 34","lon":37.506705981433903,"lat":127.060730226863996,"rate":4.3,"distance":282.0,"tag":"일식"},{"name":"국대떡볶이","cate_1":"분식","cate_2":"떡볶이전문","cate_3":"분식 및 김밥 전문점","area":"삼성동","address":"서울특별시 강남구 삼성로 571","lon":37.512340484920799,"lat":127.053194055546001,"rate":2.7,"distance":659.0,"tag":"떡볶이"},{"name":"전주비빔밥","cate_1":"한식","cate_2":"돌솥\/비빕밥전문점","cate_3":"한식 음식점업","area":"삼성동","address":"서울특별시 강남구 테헤란로 517","lon":37.508608381445796,"lat":127.059744963349999,"rate":4.0,"distance":205.0,"tag":"한정식"},{"name":"훈남닭발","cate_1":"닭\/오리요리","cate_2":"닭내장\/닭발요리","cate_3":"한식 음식점업","area":"삼성동","address":"서울특별시 강남구 영동대로 513","lon":37.5118203253706,"lat":127.059139102428006,"rate":0.0,"distance":480.0,"tag":"닭요리"},{"name":"7번가피자","cate_1":"패스트푸드","cate_2":"피자전문","cate_3":"피자, 햄버거, 샌드위치 및 유사 음식점업","area":"대치동","address":"서울특별시 강남구 역삼로 530","lon":37.503671252357996,"lat":127.060960519717995,"rate":0.0,"distance":524.0,"tag":"피자"},{"name":"배꼽집","cate_1":"한식","cate_2":"기타고기요리","cate_3":"한식 음식점업","area":"삼성동","address":"서울특별시 강남구 영동대로 513","lon":37.5118203253706,"lat":127.059139102428006,"rate":2.6,"distance":480.0,"tag":"육류,고기"},{"name":"키친혁명","cate_1":"한식","cate_2":"한식\/백반\/한정식","cate_3":"한식 음식점업","area":"삼성동","address":"서울특별시 강남구 테헤란로113길 13","lon":37.510864208188998,"lat":127.065824738136001,"rate":0.0,"distance":796.0,"tag":"한식"},{"name":"동경규동","cate_1":"일식\/수산물","cate_2":"음식점-일식","cate_3":"일식 음식점업","area":"삼성동","address":"서울특별시 강남구 테헤란로83길 15","lon":37.508398353521201,"lat":127.057134787173993,"rate":4.0,"distance":100.0,"tag":"퓨전일식"},{"name":"화원일식","cate_1":"일식\/수산물","cate_2":"음식점-일식","cate_3":"일식 음식점업","area":"대치동","address":"서울특별시 강남구 도곡로 510","lon":37.499013314784896,"lat":127.062161107920005,"rate":5.0,"distance":1035.0,"tag":"일식집"},{"name":"마라테이블","cate_1":"중식","cate_2":"중국음식\/중국집","cate_3":"중식 음식점업","area":"대치동","address":"서울특별시 강남구 선릉로86길 8","lon":37.503055880061197,"lat":127.050483801514005,"rate":4.4,"distance":820.0,"tag":"중화요리"},{"name":"자연의원죽","cate_1":"별식\/퓨전요리","cate_2":"죽전문점","cate_3":"한식 음식점업","area":"삼성동","address":"서울특별시 강남구 영동대로112길 9","lon":37.515186497379403,"lat":127.060929370717005,"rate":0.0,"distance":884.0,"tag":"죽"},{"name":"정참치","cate_1":"일식\/수산물","cate_2":"참치전문점","cate_3":"일식 음식점업","area":"대치동","address":"서울특별시 강남구 삼성로81길 22","lon":37.504352002035098,"lat":127.055930238824999,"rate":4.0,"distance":400.0,"tag":"참치회"},{"name":"짬뽕신","cate_1":"중식","cate_2":"중국음식\/중국집","cate_3":"중식 음식점업","area":"삼성동","address":"서울특별시 강남구 영동대로 513","lon":37.5118203253706,"lat":127.059139102428006,"rate":2.5,"distance":480.0,"tag":"중화요리"},{"name":"소공순대","cate_1":"별식\/퓨전요리","cate_2":"순대전문점","cate_3":"한식 음식점업","area":"대치동","address":"서울특별시 강남구 선릉로82길 4","lon":37.502343754616199,"lat":127.050447580158007,"rate":5.0,"distance":874.0,"tag":"순대"},{"name":"연안식당","cate_1":"일식\/수산물","cate_2":"횟집","cate_3":"한식 음식점업","area":"삼성동","address":"서울특별시 강남구 테헤란로87길 47","lon":37.510725461069107,"lat":127.057433540361004,"rate":5.0,"distance":344.0,"tag":"회"},{"name":"너나들이","cate_1":"닭\/오리요리","cate_2":"닭내장\/닭발요리","cate_3":"한식 음식점업","area":"삼성동","address":"서울특별시 강남구 테헤란로83길 46","lon":37.510413444955901,"lat":127.056724860171002,"rate":4.0,"distance":321.0,"tag":"양식"},{"name":"대치동숯불갈비","cate_1":"한식","cate_2":"갈비\/삼겹살","cate_3":"한식 음식점업","area":"대치동","address":"서울특별시 강남구 선릉로64길 15-6","lon":37.498421939984098,"lat":127.053539460316003,"rate":0.0,"distance":1091.0,"tag":"갈비"},{"name":"훠궈야파르나스몰점","cate_1":"중식","cate_2":"중국음식\/중국집","cate_3":"중식 음식점업","area":"삼성동","address":"서울특별시 강남구 테헤란로 521","lon":37.509184357946893,"lat":127.060789660533999,"rate":2.5,"distance":317.0,"tag":"샤브샤브"},{"name":"에그드랍파르나스점","cate_1":"패스트푸드","cate_2":"샌드위치전문점","cate_3":"피자, 햄버거, 샌드위치 및 유사 음식점업","area":"삼성동","address":"서울특별시 강남구 테헤란로 521","lon":37.509184357946893,"lat":127.060789660533999,"rate":3.0,"distance":317.0,"tag":"샌드위치"},{"name":"스쿨푸드딜리버리","cate_1":"분식","cate_2":"라면김밥분식","cate_3":"분식 및 김밥 전문점","area":"삼성동","address":"서울특별시 강남구 테헤란로77길 11-15","lon":37.506727479120897,"lat":127.053264951586002,"rate":0.0,"distance":410.0,"tag":"분식"},{"name":"에그셀런트","cate_1":"패스트푸드","cate_2":"샌드위치전문점","cate_3":"피자, 햄버거, 샌드위치 및 유사 음식점업","area":"대치동","address":"서울특별시 강남구 선릉로86길 6","lon":37.503009013577902,"lat":127.050258194080996,"rate":2.3,"distance":839.0,"tag":"샌드위치"},{"name":"하동관","cate_1":"한식","cate_2":"한식\/백반\/한정식","cate_3":"한식 음식점업","area":"삼성동","address":"서울특별시 강남구 영동대로 513","lon":37.5118203253706,"lat":127.059139102428006,"rate":3.1,"distance":480.0,"tag":"곰탕"},{"name":"강산애","cate_1":"한식","cate_2":"한식\/백반\/한정식","cate_3":"한식 음식점업","area":"대치동","address":"서울특별시 강남구 삼성로64길 51","lon":37.501094824297603,"lat":127.064442266876995,"rate":3.8,"distance":937.0,"tag":"한식"},{"name":"빵빵떡볶이","cate_1":"분식","cate_2":"떡볶이전문","cate_3":"분식 및 김밥 전문점","area":"삼성동","address":"서울특별시 강남구 삼성로 571","lon":37.512340484920799,"lat":127.053194055546001,"rate":5.0,"distance":659.0,"tag":"떡볶이"},{"name":"치즈쇼피자","cate_1":"패스트푸드","cate_2":"피자전문","cate_3":"피자, 햄버거, 샌드위치 및 유사 음식점업","area":"대치동","address":"서울특별시 강남구 도곡로77길 8","lon":37.498895155068702,"lat":127.058634041630995,"rate":0.0,"distance":976.0,"tag":"피자"},{"name":"네모오징어","cate_1":"일식\/수산물","cate_2":"낙지\/오징어","cate_3":"한식 음식점업","area":"대치동","address":"서울특별시 강남구 테헤란로114길 26","lon":37.507970602691103,"lat":127.066810907255999,"rate":3.0,"distance":799.0,"tag":"해물,생선"},{"name":"그때그집","cate_1":"한식","cate_2":"족발\/보쌈전문","cate_3":"한식 음식점업","area":"대치동","address":"서울특별시 강남구 삼성로82길 5","lon":37.5051184000028,"lat":127.058250524643,"rate":4.7,"distance":284.0,"tag":"족발,보쌈"},{"name":"종로화덕","cate_1":"한식","cate_2":"기타고기요리","cate_3":"한식 음식점업","area":"삼성동","address":"서울특별시 강남구 봉은사로 504","lon":37.512924441825099,"lat":127.054102913996005,"rate":3.0,"distance":670.0,"tag":"육류,고기"},{"name":"리틀사이공파르나스몰점","cate_1":"별식\/퓨전요리","cate_2":"동남아음식전문점","cate_3":"기타 외국식 음식점업","area":"삼성동","address":"서울특별시 강남구 테헤란로 521","lon":37.509184357946893,"lat":127.060789660533999,"rate":3.2,"distance":317.0,"tag":"베트남음식"},{"name":"신사동덮밥","cate_1":"일식\/수산물","cate_2":"음식점-일식","cate_3":"일식 음식점업","area":"삼성동","address":"서울특별시 강남구 삼성로 571","lon":37.512340484920799,"lat":127.053194055546001,"rate":0.0,"distance":659.0,"tag":"일식"},{"name":"지구당","cate_1":"일식\/수산물","cate_2":"음식점-일식","cate_3":"일식 음식점업","area":"삼성동","address":"서울특별시 강남구 테헤란로 423","lon":37.506166433398199,"lat":127.052966652655002,"rate":2.4,"distance":454.0,"tag":"일식"},{"name":"봉초밥","cate_1":"일식\/수산물","cate_2":"음식점-초밥전문","cate_3":"일식 음식점업","area":"대치동","address":"서울특별시 강남구 삼성로58길 31","lon":37.499359768938802,"lat":127.063807963103997,"rate":4.5,"distance":1065.0,"tag":"초밥,롤"},{"name":"배달왔소","cate_1":"한식","cate_2":"한식\/백반\/한정식","cate_3":"한식 음식점업","area":"삼성동","address":"서울특별시 강남구 삼성로103길 12","lon":37.510386662713003,"lat":127.053377092172994,"rate":0.0,"distance":492.0,"tag":"한식"},{"name":"계절밥상","cate_1":"한식","cate_2":"한식\/백반\/한정식","cate_3":"한식 음식점업","area":"삼성동","address":"서울특별시 강남구 영동대로 513","lon":37.5118203253706,"lat":127.059139102428006,"rate":1.9,"distance":480.0,"tag":"한식뷔페"},{"name":"정 한뿌리죽","cate_1":"별식\/퓨전요리","cate_2":"죽전문점","cate_3":"한식 음식점업","area":"삼성동","address":"서울특별시 강남구 테헤란로 517","lon":37.508608381445796,"lat":127.059744963349999,"rate":0.0,"distance":205.0,"tag":"죽"},{"name":"미스꼬레아","cate_1":"한식","cate_2":"한식\/백반\/한정식","cate_3":"한식 음식점업","area":"대치동","address":"서울특별시 강남구 삼성로 238","lon":37.498628711149401,"lat":127.061385569604994,"rate":4.5,"distance":1053.0,"tag":"한식"},{"name":"초가마을","cate_1":"한식","cate_2":"한식\/백반\/한정식","cate_3":"한식 음식점업","area":"대치동","address":"서울특별시 강남구 선릉로64길 12","lon":37.497788998582699,"lat":127.053264717245995,"rate":2.7,"distance":1166.0,"tag":"한식"},{"name":"응급실국물떡볶이","cate_1":"분식","cate_2":"떡볶이전문","cate_3":"분식 및 김밥 전문점","area":"대치동","address":"서울특별시 강남구 삼성로51길 10-20","lon":37.497560446019101,"lat":127.060754314197993,"rate":3.0,"distance":1152.0,"tag":"떡볶이"},{"name":"민속칼국수","cate_1":"분식","cate_2":"국수\/만두\/칼국수","cate_3":"분식 및 김밥 전문점","area":"대치동","address":"서울특별시 강남구 역삼로92길 7","lon":37.503993476815694,"lat":127.062958390451996,"rate":4.5,"distance":613.0,"tag":"국수"},{"name":"소풍","cate_1":"분식","cate_2":"라면김밥분식","cate_3":"분식 및 김밥 전문점","area":"대치동","address":"서울특별시 강남구 역삼로 417","lon":37.501343460655498,"lat":127.052676968464993,"rate":2.0,"distance":832.0,"tag":"분식"},{"name":"삼성한식부페","cate_1":"한식","cate_2":"한식\/백반\/한정식","cate_3":"한식 음식점업","area":"삼성동","address":"서울특별시 강남구 삼성로 575","lon":37.512754384147598,"lat":127.053120957809995,"rate":0.0,"distance":700.0,"tag":"한식뷔페"},{"name":"오징어청춘","cate_1":"일식\/수산물","cate_2":"낙지\/오징어","cate_3":"한식 음식점업","area":"대치동","address":"서울특별시 강남구 선릉로86길 44","lon":37.503970164682698,"lat":127.053254530310994,"rate":1.3,"distance":570.0,"tag":"해물,생선"},{"name":"베이크하우스","cate_1":"한식","cate_2":"한식\/백반\/한정식","cate_3":"한식 음식점업","area":"삼성동","address":"서울특별시 강남구 영동대로 510","lon":37.5105341373798,"lat":127.062831384963999,"rate":5.0,"distance":550.0,"tag":"제과,베이커리"},{"name":"마샹라위","cate_1":"중식","cate_2":"중국음식\/중국집","cate_3":"중식 음식점업","area":"삼성동","address":"서울특별시 강남구 삼성로104길 15","lon":37.511090948885503,"lat":127.055811432183006,"rate":3.8,"distance":420.0,"tag":"중식"},{"name":"이승재참치","cate_1":"일식\/수산물","cate_2":"음식점-일식","cate_3":"일식 음식점업","area":"대치동","address":"서울특별시 강남구 역삼로63길 22","lon":37.502564237080399,"lat":127.052096045206994,"rate":3.8,"distance":754.0,"tag":"참치회"},{"name":"밥맛나는세상","cate_1":"분식","cate_2":"라면김밥분식","cate_3":"분식 및 김밥 전문점","area":"대치동","address":"서울특별시 강남구 역삼로64길 5","lon":37.500778391421697,"lat":127.053000779602002,"rate":3.2,"distance":872.0,"tag":"분식"},{"name":"떡판왕","cate_1":"중식","cate_2":"중국음식\/중국집","cate_3":"중식 음식점업","area":"삼성동","address":"서울특별시 강남구 테헤란로 423","lon":37.506166433398199,"lat":127.052966652655002,"rate":0.0,"distance":454.0,"tag":"떡볶이"},{"name":"풍년참숯불갈비","cate_1":"한식","cate_2":"갈비\/삼겹살","cate_3":"한식 음식점업","area":"삼성동","address":"서울특별시 강남구 영동대로 510","lon":37.5105341373798,"lat":127.062831384963999,"rate":4.3,"distance":550.0,"tag":"오리"},{"name":"걸작떡볶이","cate_1":"분식","cate_2":"떡볶이전문","cate_3":"분식 및 김밥 전문점","area":"대치동","address":"서울특별시 강남구 역삼로64길 19","lon":37.499871316777799,"lat":127.053374141912002,"rate":2.4,"distance":947.0,"tag":"분식"},{"name":"써브웨이봉은사역점","cate_1":"패스트푸드","cate_2":"패스트푸드","cate_3":"그외 기타 음식점업","area":"삼성동","address":"서울특별시 강남구 봉은사로 627","lon":37.5151833507934,"lat":127.063938374488004,"rate":2.8,"distance":1000.0,"tag":"샌드위치"},{"name":"수하동","cate_1":"한식","cate_2":"한식\/백반\/한정식","cate_3":"한식 음식점업","area":"대치동","address":"서울특별시 강남구 삼성로 212","lon":37.499610581976597,"lat":127.065897098053,"rate":0.0,"distance":1146.0,"tag":"한식"},{"name":"잇샐러드딜리버리","cate_1":"양식","cate_2":"정통양식\/경양식","cate_3":"서양식 음식점업","area":"삼성동","address":"서울특별시 강남구 삼성로 571","lon":37.512340484920799,"lat":127.053194055546001,"rate":3.0,"distance":659.0,"tag":"패스트푸드"},{"name":"식후경","cate_1":"한식","cate_2":"한식\/백반\/한정식","cate_3":"한식 음식점업","area":"대치동","address":"서울특별시 강남구 테헤란로98길 28","lon":37.506533127580802,"lat":127.062790919926996,"rate":0.0,"distance":461.0,"tag":"소프트웨어"},{"name":"BHC치킨대치포스코점","cate_1":"닭\/오리요리","cate_2":"후라이드\/양념치킨","cate_3":"치킨 전문점","area":"대치동","address":"서울특별시 강남구 삼성로 417","lon":37.504598445145803,"lat":127.057454025148999,"rate":4.4,"distance":340.0,"tag":"치킨"},{"name":"경성꽈배기","cate_1":"분식","cate_2":"스낵","cate_3":"분식 및 김밥 전문점","area":"대치동","address":"서울특별시 강남구 선릉로 320","lon":37.498266814896198,"lat":127.052172988684006,"rate":0.0,"distance":1154.0,"tag":"제과,베이커리"},{"name":"직화한상","cate_1":"한식","cate_2":"한식\/백반\/한정식","cate_3":"한식 음식점업","area":"대치동","address":"서울특별시 강남구 테헤란로 440","lon":37.505804183147696,"lat":127.056115540456005,"rate":3.0,"distance":251.0,"tag":"한식"},{"name":"그레잇피자","cate_1":"패스트푸드","cate_2":"피자전문","cate_3":"피자, 햄버거, 샌드위치 및 유사 음식점업","area":"대치동","address":"서울특별시 강남구 영동대로85길 20","lon":37.507019770485002,"lat":127.061665080279994,"rate":3.5,"distance":351.0,"tag":"피자"},{"name":"히노아지","cate_1":"일식\/수산물","cate_2":"음식점-일식","cate_3":"일식 음식점업","area":"대치동","address":"서울특별시 강남구 테헤란로 440","lon":37.505804183147696,"lat":127.056115540456005,"rate":1.0,"distance":251.0,"tag":"일본식라면"},{"name":"삼성동명인등심","cate_1":"한식","cate_2":"한식\/백반\/한정식","cate_3":"한식 음식점업","area":"삼성동","address":"서울특별시 강남구 봉은사로86길 30","lon":37.511441628526804,"lat":127.056847656648003,"rate":3.6,"distance":430.0,"tag":"육류,고기"},{"name":"이천가든코엑스","cate_1":"한식","cate_2":"한식\/백반\/한정식","cate_3":"한식 음식점업","area":"삼성동","address":"서울특별시 강남구 영동대로 513","lon":37.5118203253706,"lat":127.059139102428006,"rate":1.6,"distance":480.0,"tag":"한식"},{"name":"청춘극장","cate_1":"한식","cate_2":"한식\/백반\/한정식","cate_3":"한식 음식점업","area":"삼성동","address":"서울특별시 강남구 봉은사로72길 6","lon":37.511661900998895,"lat":127.050601015805995,"rate":4.0,"distance":773.0,"tag":"갈비"},{"name":"탐라도야지","cate_1":"한식","cate_2":"한식\/백반\/한정식","cate_3":"한식 음식점업","area":"삼성동","address":"서울특별시 강남구 삼성로104길 13","lon":37.5110809446752,"lat":127.055687134224002,"rate":3.4,"distance":423.0,"tag":"육류,고기"},{"name":"이타마에바루","cate_1":"한식","cate_2":"한식\/백반\/한정식","cate_3":"한식 음식점업","area":"삼성동","address":"서울특별시 강남구 봉은사로111길 6","lon":37.515663676207296,"lat":127.065425555087003,"rate":3.9,"distance":1119.0,"tag":"일식"},{"name":"삼원가든","cate_1":"한식","cate_2":"한식\/백반\/한정식","cate_3":"한식 음식점업","area":"삼성동","address":"서울특별시 강남구 영동대로 510","lon":37.5105341373798,"lat":127.062831384963999,"rate":3.2,"distance":550.0,"tag":"육류,고기"},{"name":"3호집","cate_1":"한식","cate_2":"한식\/백반\/한정식","cate_3":"한식 음식점업","area":"삼성동","address":"서울특별시 강남구 선릉로112길 48","lon":37.512060312244401,"lat":127.047485330569003,"rate":4.0,"distance":1031.0,"tag":"한식"},{"name":"수타우동겐","cate_1":"분식","cate_2":"우동전문점","cate_3":"분식 및 김밥 전문점","area":"대치동","address":"서울특별시 강남구 테헤란로70길 28","lon":37.503775939463999,"lat":127.053754630268998,"rate":4.3,"distance":557.0,"tag":"돈까스,우동"},{"name":"브라운돈까스","cate_1":"양식","cate_2":"정통양식\/경양식","cate_3":"서양식 음식점업","area":"대치동","address":"서울특별시 강남구 영동대로85길 20","lon":37.507019770485002,"lat":127.061665080279994,"rate":1.7,"distance":351.0,"tag":"돈까스,우동"},{"name":"어원","cate_1":"일식\/수산물","cate_2":"음식점-일식","cate_3":"일식 음식점업","area":"대치동","address":"서울특별시 강남구 삼성로58길 13","lon":37.498816717627598,"lat":127.062367136359995,"rate":4.6,"distance":1063.0,"tag":"일식"},{"name":"한탕","cate_1":"분식","cate_2":"라면김밥분식","cate_3":"분식 및 김밥 전문점","area":"삼성동","address":"서울특별시 강남구 삼성로104길 7","lon":37.510878752955399,"lat":127.055191986969007,"rate":3.3,"distance":425.0,"tag":"불고기,두루치기"},{"name":"미즈호노스시야","cate_1":"일식\/수산물","cate_2":"음식점-초밥전문","cate_3":"일식 음식점업","area":"대치동","address":"서울특별시 강남구 삼성로71길 45","lon":37.5011571588687,"lat":127.055291879565999,"rate":3.0,"distance":754.0,"tag":"초밥,롤"},{"name":"스쿨푸드","cate_1":"분식","cate_2":"라면김밥분식","cate_3":"분식 및 김밥 전문점","area":"삼성동","address":"서울특별시 강남구 테헤란로77길 11-15","lon":37.506727479120897,"lat":127.053264951586002,"rate":4.0,"distance":410.0,"tag":"분식"},{"name":"피자헛","cate_1":"한식","cate_2":"한식\/백반\/한정식","cate_3":"한식 음식점업","area":"대치동","address":"서울특별시 강남구 도곡로 532","lon":37.499789136671097,"lat":127.064549034324003,"rate":3.0,"distance":1059.0,"tag":"피자"},{"name":"새묵호","cate_1":"일식\/수산물","cate_2":"음식점-일식","cate_3":"일식 음식점업","area":"대치동","address":"서울특별시 강남구 테헤란로64길 9","lon":37.504488034784302,"lat":127.051540139422002,"rate":0.0,"distance":652.0,"tag":"일식집"},{"name":"유림","cate_1":"한식","cate_2":"한식\/백반\/한정식","cate_3":"한식 음식점업","area":"대치동","address":"서울특별시 강남구 테헤란로 440","lon":37.505804183147696,"lat":127.056115540456005,"rate":3.6,"distance":251.0,"tag":"닭요리"},{"name":"스시마이우키친","cate_1":"일식\/수산물","cate_2":"음식점-초밥전문","cate_3":"일식 음식점업","area":"대치동","address":"서울특별시 강남구 테헤란로 440","lon":37.505804183147696,"lat":127.056115540456005,"rate":2.3,"distance":251.0,"tag":"초밥,롤"},{"name":"김태완스시","cate_1":"일식\/수산물","cate_2":"음식점-초밥전문","cate_3":"일식 음식점업","area":"대치동","address":"서울특별시 강남구 선릉로64길 17","lon":37.498215623792895,"lat":127.053655157590001,"rate":2.9,"distance":1110.0,"tag":"일식집"},{"name":"오름곰탕","cate_1":"한식","cate_2":"설렁탕집","cate_3":"한식 음식점업","area":"삼성동","address":"서울특별시 강남구 삼성로95길 23","lon":37.507381700891507,"lat":127.053946642705,"rate":3.0,"distance":338.0,"tag":"곰탕"},{"name":"브라운돈까스","cate_1":"양식","cate_2":"정통양식\/경양식","cate_3":"서양식 음식점업","area":"대치동","address":"서울특별시 강남구 테헤란로 440","lon":37.505804183147696,"lat":127.056115540456005,"rate":1.7,"distance":251.0,"tag":"돈까스,우동"},{"name":"신정","cate_1":"한식","cate_2":"한식\/백반\/한정식","cate_3":"한식 음식점업","area":"삼성동","address":"서울특별시 강남구 영동대로 510","lon":37.5105341373798,"lat":127.062831384963999,"rate":0.0,"distance":550.0,"tag":"중고차"},{"name":"문어앤치킨","cate_1":"분식","cate_2":"라면김밥분식","cate_3":"분식 및 김밥 전문점","area":"삼성동","address":"서울특별시 강남구 삼성로104길 24","lon":37.511133945767199,"lat":127.056681859074004,"rate":3.3,"distance":399.0,"tag":"치킨"},{"name":"쿡디퍼탄","cate_1":"일식\/수산물","cate_2":"음식점-일식","cate_3":"일식 음식점업","area":"대치동","address":"서울특별시 강남구 삼성로85길 33","lon":37.504279981146098,"lat":127.054811431542007,"rate":0.0,"distance":456.0,"tag":"일식"},{"name":"오뎅n카레","cate_1":"분식","cate_2":"라면김밥분식","cate_3":"분식 및 김밥 전문점","area":"대치동","address":"서울특별시 강남구 선릉로82길 45","lon":37.503604212542093,"lat":127.053688936784994,"rate":5.0,"distance":575.0,"tag":"오뎅바"},{"name":"청담프리미엄앞족발","cate_1":"한식","cate_2":"족발\/보쌈전문","cate_3":"한식 음식점업","area":"삼성동","address":"서울특별시 강남구 삼성로104길 15","lon":37.511090948885503,"lat":127.055811432183006,"rate":4.1,"distance":420.0,"tag":"족발,보쌈"},{"name":"도담도시락","cate_1":"패스트푸드","cate_2":"도시락전문점","cate_3":"한식 음식점업","area":"삼성동","address":"서울특별시 강남구 삼성로103길 12","lon":37.510386662713003,"lat":127.053377092172994,"rate":0.0,"distance":492.0,"tag":"도시락"},{"name":"타오","cate_1":"일식\/수산물","cate_2":"음식점-일식","cate_3":"일식 음식점업","area":"대치동","address":"서울특별시 강남구 테헤란로78길 16","lon":37.505049963096702,"lat":127.055322000640004,"rate":0.0,"distance":360.0,"tag":"일식"},{"name":"스테이","cate_1":"한식","cate_2":"한식\/백반\/한정식","cate_3":"한식 음식점업","area":"대치동","address":"서울특별시 강남구 역삼로67길 33","lon":37.503484763691397,"lat":127.052276679157004,"rate":3.0,"distance":670.0,"tag":"미용실"},{"name":"스윗밸런스","cate_1":"한식","cate_2":"한식\/백반\/한정식","cate_3":"한식 음식점업","area":"대치동","address":"서울특별시 강남구 테헤란로 440","lon":37.505804183147696,"lat":127.056115540456005,"rate":5.0,"distance":251.0,"tag":"양식"},{"name":"파파밸리피자","cate_1":"패스트푸드","cate_2":"패스트푸드","cate_3":"그외 기타 음식점업","area":"삼성동","address":"서울특별시 강남구 테헤란로 517","lon":37.508608381445796,"lat":127.059744963349999,"rate":2.3,"distance":205.0,"tag":"피자"},{"name":"BBQ치킨","cate_1":"패스트푸드","cate_2":"패스트푸드","cate_3":"그외 기타 음식점업","area":"대치동","address":"서울특별시 강남구 선릉로 326","lon":37.4987612570104,"lat":127.052031026147006,"rate":2.8,"distance":1110.0,"tag":"치킨"},{"name":"사계절","cate_1":"한식","cate_2":"한식\/백반\/한정식","cate_3":"한식 음식점업","area":"삼성동","address":"서울특별시 강남구 테헤란로107길 6","lon":37.510222553418494,"lat":127.065583889791,"rate":3.7,"distance":747.0,"tag":"해물,생선"},{"name":"바른식당","cate_1":"한식","cate_2":"한식\/백반\/한정식","cate_3":"한식 음식점업","area":"대치동","address":"서울특별시 강남구 테헤란로86길 17","lon":37.506291188176803,"lat":127.059559126487002,"rate":0.0,"distance":219.0,"tag":"해물,생선"},{"name":"정고깃집","cate_1":"한식","cate_2":"한식\/백반\/한정식","cate_3":"한식 음식점업","area":"삼성동","address":"서울특별시 강남구 삼성로100길 23-14","lon":37.510507695036303,"lat":127.057243988620002,"rate":2.0,"distance":321.0,"tag":"육류,고기"},{"name":"온더보더코엑스","cate_1":"양식","cate_2":"정통양식\/경양식","cate_3":"서양식 음식점업","area":"삼성동","address":"서울특별시 강남구 영동대로 513","lon":37.5118203253706,"lat":127.059139102428006,"rate":3.7,"distance":480.0,"tag":"멕시칸,브라질"},{"name":"도동집","cate_1":"한식","cate_2":"한식\/백반\/한정식","cate_3":"한식 음식점업","area":"대치동","address":"서울특별시 강남구 삼성로81길 36","lon":37.503917875540203,"lat":127.054601103031999,"rate":3.0,"distance":500.0,"tag":"지명"},{"name":"직화한상","cate_1":"한식","cate_2":"한식\/백반\/한정식","cate_3":"한식 음식점업","area":"대치동","address":"서울특별시 강남구 영동대로85길 20","lon":37.507019770485002,"lat":127.061665080279994,"rate":3.0,"distance":351.0,"tag":"한식"},{"name":"소풍","cate_1":"분식","cate_2":"떡볶이전문","cate_3":"분식 및 김밥 전문점","area":"삼성동","address":"서울특별시 강남구 영동대로 513","lon":37.5118203253706,"lat":127.059139102428006,"rate":3.5,"distance":480.0,"tag":"분식"},{"name":"한솔도시락","cate_1":"패스트푸드","cate_2":"도시락전문점","cate_3":"한식 음식점업","area":"대치동","address":"서울특별시 강남구 삼성로57길 22","lon":37.497791559716198,"lat":127.059224668164006,"rate":2.3,"distance":1103.0,"tag":"도시락"},{"name":"아리가또맘마","cate_1":"일식\/수산물","cate_2":"음식점-일식","cate_3":"일식 음식점업","area":"삼성동","address":"서울특별시 강남구 봉은사로68길 21","lon":37.510735454282198,"lat":127.050805041228998,"rate":0.0,"distance":703.0,"tag":"일식"},{"name":"마포갈매기","cate_1":"한식","cate_2":"갈비\/삼겹살","cate_3":"한식 음식점업","area":"삼성동","address":"서울특별시 강남구 영동대로 513","lon":37.5118203253706,"lat":127.059139102428006,"rate":2.3,"distance":480.0,"tag":"육류,고기"},{"name":"대도식당강남직영점","cate_1":"한식","cate_2":"갈비\/삼겹살","cate_3":"한식 음식점업","area":"삼성동","address":"서울특별시 강남구 삼성로 545","lon":37.510170118184597,"lat":127.054465695592995,"rate":3.3,"distance":404.0,"tag":"육류,고기"},{"name":"명우돈가","cate_1":"양식","cate_2":"정통양식\/경양식","cate_3":"서양식 음식점업","area":"삼성동","address":"서울특별시 강남구 삼성로96길 6","lon":37.508438796240803,"lat":127.056557423949997,"rate":4.0,"distance":138.0,"tag":"한정식"},{"name":"이태리어부","cate_1":"한식","cate_2":"한식\/백반\/한정식","cate_3":"한식 음식점업","area":"대치동","address":"서울특별시 강남구 역삼로63길 24","lon":37.502779651848598,"lat":127.051991531653002,"rate":5.0,"distance":743.0,"tag":"회"},{"name":"당나라","cate_1":"중식","cate_2":"중국음식\/중국집","cate_3":"중식 음식점업","area":"삼성동","address":"서울특별시 강남구 테헤란로83길 42","lon":37.510116939398898,"lat":127.056830391635998,"rate":4.3,"distance":287.0,"tag":"중화요리"},{"name":"도스타코스","cate_1":"양식","cate_2":"정통양식\/경양식","cate_3":"서양식 음식점업","area":"삼성동","address":"서울특별시 강남구 테헤란로69길 10","lon":37.506587800918403,"lat":127.052701186036998,"rate":4.5,"distance":462.0,"tag":"멕시칸,브라질"},{"name":"일상정원","cate_1":"한식","cate_2":"한식\/백반\/한정식","cate_3":"한식 음식점업","area":"삼성동","address":"서울특별시 강남구 테헤란로87길 58","lon":37.5120056433882,"lat":127.057519244112001,"rate":4.6,"distance":485.0,"tag":"일식"},{"name":"가마로강정","cate_1":"닭\/오리요리","cate_2":"후라이드\/양념치킨","cate_3":"치킨 전문점","area":"대치동","address":"서울특별시 강남구 선릉로 344","lon":37.500502410957097,"lat":127.051172098341993,"rate":3.0,"distance":984.0,"tag":"닭강정"},{"name":"상까스&상화교자코엑스","cate_1":"양식","cate_2":"정통양식\/경양식","cate_3":"서양식 음식점업","area":"삼성동","address":"서울특별시 강남구 테헤란로87길 58","lon":37.5120056433882,"lat":127.057519244112001,"rate":2.4,"distance":485.0,"tag":"돈까스,우동"},{"name":"채선당M","cate_1":"별식\/퓨전요리","cate_2":"샤브샤브전문","cate_3":"한식 음식점업","area":"삼성동","address":"서울특별시 강남구 영동대로 513","lon":37.5118203253706,"lat":127.059139102428006,"rate":1.4,"distance":480.0,"tag":"샤브샤브"},{"name":"참치공간","cate_1":"일식\/수산물","cate_2":"참치전문점","cate_3":"일식 음식점업","area":"대치동","address":"서울특별시 강남구 선릉로82길 45","lon":37.503604212542093,"lat":127.053688936784994,"rate":4.4,"distance":575.0,"tag":"참치회"},{"name":"오면가면칼국수","cate_1":"분식","cate_2":"국수\/만두\/칼국수","cate_3":"분식 및 김밥 전문점","area":"대치동","address":"서울특별시 강남구 삼성로71길 25","lon":37.501647773187997,"lat":127.056925626007995,"rate":0.0,"distance":671.0,"tag":"음식점"},{"name":"육탄","cate_1":"한식","cate_2":"한식\/백반\/한정식","cate_3":"한식 음식점업","area":"대치동","address":"서울특별시 강남구 선릉로86길 31","lon":37.504203448224899,"lat":127.052007459091001,"rate":0.0,"distance":636.0,"tag":"육류,고기"},{"name":"밥장인","cate_1":"한식","cate_2":"한식\/백반\/한정식","cate_3":"한식 음식점업","area":"삼성동","address":"서울특별시 강남구 테헤란로81길 56-6","lon":37.510238286526402,"lat":127.056229374073993,"rate":0.0,"distance":318.0,"tag":"찌개,전골"},{"name":"이비가짬뽕","cate_1":"중식","cate_2":"중국음식\/중국집","cate_3":"중식 음식점업","area":"대치동","address":"서울특별시 강남구 도곡로 532","lon":37.499789136671097,"lat":127.064549034324003,"rate":3.2,"distance":1059.0,"tag":"중화요리"},{"name":"치킨공식","cate_1":"닭\/오리요리","cate_2":"후라이드\/양념치킨","cate_3":"치킨 전문점","area":"삼성동","address":"서울특별시 강남구 테헤란로77길 17","lon":37.507482437261402,"lat":127.054148964473001,"rate":4.0,"distance":319.0,"tag":"치킨"},{"name":"일일향","cate_1":"중식","cate_2":"중국음식\/중국집","cate_3":"중식 음식점업","area":"삼성동","address":"서울특별시 강남구 영동대로 510","lon":37.5105341373798,"lat":127.062831384963999,"rate":3.7,"distance":550.0,"tag":"중화요리"},{"name":"이태리부대찌개","cate_1":"한식","cate_2":"부대찌개\/섞어찌개","cate_3":"한식 음식점업","area":"삼성동","address":"서울특별시 강남구 봉은사로112길 6","lon":37.514497043141901,"lat":127.064885825467002,"rate":3.6,"distance":987.0,"tag":"찌개,전골"},{"name":"쫀득이족발","cate_1":"한식","cate_2":"족발\/보쌈전문","cate_3":"한식 음식점업","area":"대치동","address":"서울특별시 강남구 선릉로86길 38","lon":37.503794992197598,"lat":127.052759094902001,"rate":2.0,"distance":615.0,"tag":"족발,보쌈"},{"name":"죽이야기","cate_1":"별식\/퓨전요리","cate_2":"죽전문점","cate_3":"한식 음식점업","area":"삼성동","address":"서울특별시 강남구 테헤란로87길 57","lon":37.511282073423999,"lat":127.057177692137003,"rate":4.5,"distance":407.0,"tag":"죽"},{"name":"삼성돈구이","cate_1":"한식","cate_2":"한식\/백반\/한정식","cate_3":"한식 음식점업","area":"삼성동","address":"서울특별시 강남구 봉은사로108길 3-6","lon":37.514382566632094,"lat":127.064084117674,"rate":5.0,"distance":934.0,"tag":"육류,고기"},{"name":"마포갈매기","cate_1":"한식","cate_2":"한식\/백반\/한정식","cate_3":"한식 음식점업","area":"대치동","address":"서울특별시 강남구 역삼로63길 23","lon":37.5027055777404,"lat":127.051743648167999,"rate":3.0,"distance":764.0,"tag":"갈비"},{"name":"포포빈","cate_1":"한식","cate_2":"한식\/백반\/한정식","cate_3":"한식 음식점업","area":"대치동","address":"서울특별시 강남구 영동대로82길 29","lon":37.507576052938802,"lat":127.067053344640001,"rate":5.0,"distance":820.0,"tag":"동남아음식"},{"name":"명원","cate_1":"중식","cate_2":"중국음식\/중국집","cate_3":"중식 음식점업","area":"삼성동","address":"서울특별시 강남구 봉은사로 478","lon":37.512625347271502,"lat":127.052760619946994,"rate":4.0,"distance":708.0,"tag":"중식"},{"name":"원죽전문점","cate_1":"양식","cate_2":"정통양식\/경양식","cate_3":"서양식 음식점업","area":"삼성동","address":"서울특별시 강남구 영동대로112길 9","lon":37.515186497379403,"lat":127.060929370717005,"rate":4.0,"distance":884.0,"tag":"죽"},{"name":"원조양평해장국","cate_1":"한식","cate_2":"해장국\/감자탕","cate_3":"한식 음식점업","area":"삼성동","address":"서울특별시 강남구 영동대로106길 29","lon":37.514170503205101,"lat":127.063475931724994,"rate":4.0,"distance":883.0,"tag":"해장국"},{"name":"우소우소","cate_1":"한식","cate_2":"한식\/백반\/한정식","cate_3":"한식 음식점업","area":"삼성동","address":"서울특별시 강남구 봉은사로 610","lon":37.514209659076897,"lat":127.061597692077996,"rate":2.8,"distance":804.0,"tag":"육류,고기"},{"name":"백암가선순대","cate_1":"별식\/퓨전요리","cate_2":"순대전문점","cate_3":"한식 음식점업","area":"대치동","address":"서울특별시 강남구 삼성로64길 35","lon":37.500679261252699,"lat":127.063169454879997,"rate":4.5,"distance":910.0,"tag":"순대"},{"name":"경성갈비","cate_1":"한식","cate_2":"갈비\/삼겹살","cate_3":"한식 음식점업","area":"대치동","address":"서울특별시 강남구 테헤란로108길 8","lon":37.508826591019698,"lat":127.065669157081999,"rate":3.2,"distance":710.0,"tag":"갈비"},{"name":"우밀가","cate_1":"한식","cate_2":"한식\/백반\/한정식","cate_3":"한식 음식점업","area":"대치동","address":"서울특별시 강남구 삼성로81길 35","lon":37.503730482816898,"lat":127.054829669224006,"rate":3.6,"distance":506.0,"tag":"국수"},{"name":"가장맛있는족발","cate_1":"한식","cate_2":"족발\/보쌈전문","cate_3":"한식 음식점업","area":"삼성동","address":"서울특별시 강남구 봉은사로57길 5","lon":37.511221076727402,"lat":127.045098003519001,"rate":0.0,"distance":1186.0,"tag":"족발,보쌈"},{"name":"왕가네왕만두","cate_1":"분식","cate_2":"국수\/만두\/칼국수","cate_3":"분식 및 김밥 전문점","area":"대치동","address":"서울특별시 강남구 역삼로 420","lon":37.500966596830402,"lat":127.052873995444997,"rate":3.7,"distance":859.0,"tag":"분식"},{"name":"므이므이","cate_1":"중식","cate_2":"중국음식\/중국집","cate_3":"중식 음식점업","area":"삼성동","address":"서울특별시 강남구 영동대로 513","lon":37.5118203253706,"lat":127.059139102428006,"rate":5.0,"distance":480.0,"tag":"피부관리"},{"name":"향호면옥","cate_1":"한식","cate_2":"냉면집","cate_3":"한식 음식점업","area":"대치동","address":"서울특별시 강남구 선릉로64길 15-10","lon":37.498736190706403,"lat":127.053399781108993,"rate":4.0,"distance":1063.0,"tag":"국수"},{"name":"르푸도레","cate_1":"양식","cate_2":"정통양식\/경양식","cate_3":"서양식 음식점업","area":"삼성동","address":"서울특별시 강남구 영동대로 513","lon":37.5118203253706,"lat":127.059139102428006,"rate":3.8,"distance":480.0,"tag":"제과,베이커리"},{"name":"본촌치킨","cate_1":"닭\/오리요리","cate_2":"후라이드\/양념치킨","cate_3":"치킨 전문점","area":"삼성동","address":"서울특별시 강남구 영동대로115길 9","lon":37.514774499271695,"lat":127.058977586233993,"rate":0.0,"distance":800.0,"tag":"치킨"},{"name":"평양옥","cate_1":"한식","cate_2":"한식\/백반\/한정식","cate_3":"한식 음식점업","area":"대치동","address":"서울특별시 강남구 선릉로86길 31","lon":37.5041585815151,"lat":127.052030646855002,"rate":0.0,"distance":637.0,"tag":"육류,고기"},{"name":"송","cate_1":"일식\/수산물","cate_2":"음식점-일식","cate_3":"일식 음식점업","area":"대치동","address":"서울특별시 강남구 선릉로76길 27","lon":37.502109915778803,"lat":127.052746454064007,"rate":3.5,"distance":758.0,"tag":"이비인후과"},{"name":"브루클린더버거조인트","cate_1":"패스트푸드","cate_2":"패스트푸드","cate_3":"그외 기타 음식점업","area":"삼성동","address":"서울특별시 강남구 봉은사로84길 10","lon":37.512611679661603,"lat":127.055554733373995,"rate":3.5,"distance":585.0,"tag":"햄버거"},{"name":"예가낙지마을","cate_1":"일식\/수산물","cate_2":"낙지\/오징어","cate_3":"한식 음식점업","area":"삼성동","address":"서울특별시 강남구 영동대로 513","lon":37.5118203253706,"lat":127.059139102428006,"rate":4.0,"distance":480.0,"tag":"해물,생선"},{"name":"하얼빈","cate_1":"중식","cate_2":"중국음식\/중국집","cate_3":"중식 음식점업","area":"삼성동","address":"서울특별시 강남구 선릉로96길 5-14","lon":37.506685585416896,"lat":127.049171042083003,"rate":3.0,"distance":765.0,"tag":"중화요리"},{"name":"그랜드힐컨벤션","cate_1":"양식","cate_2":"정통양식\/경양식","cate_3":"서양식 음식점업","area":"대치동","address":"서울특별시 강남구 역삼로 607","lon":37.506096410741293,"lat":127.066811616459006,"rate":4.1,"distance":817.0,"tag":"예식장"},{"name":"한솥","cate_1":"패스트푸드","cate_2":"도시락전문점","cate_3":"한식 음식점업","area":"대치동","address":"서울특별시 강남구 선릉로 326","lon":37.4987612570104,"lat":127.052031026147006,"rate":2.3,"distance":1110.0,"tag":"도시락"},{"name":"스노우폭스","cate_1":"분식","cate_2":"라면김밥분식","cate_3":"분식 및 김밥 전문점","area":"삼성동","address":"서울특별시 강남구 테헤란로 415","lon":37.505695417691101,"lat":127.051536174939002,"rate":3.3,"distance":590.0,"tag":"꽃집,꽃배달"},{"name":"안에","cate_1":"한식","cate_2":"한식\/백반\/한정식","cate_3":"한식 음식점업","area":"삼성동","address":"서울특별시 강남구 삼성로 550","lon":37.510839366328895,"lat":127.054773967784996,"rate":4.2,"distance":442.0,"tag":"산부인과"},{"name":"내림손삼계탕","cate_1":"닭\/오리요리","cate_2":"삼계탕전문","cate_3":"한식 음식점업","area":"삼성동","address":"서울특별시 강남구 봉은사로112길 16-4","lon":37.513819079436303,"lat":127.064611492238996,"rate":0.0,"distance":914.0,"tag":"삼계탕"},{"name":"신촌설렁탕","cate_1":"한식","cate_2":"설렁탕집","cate_3":"한식 음식점업","area":"삼성동","address":"서울특별시 강남구 선릉로 530","lon":37.506960773168601,"lat":127.047538819135994,"rate":2.7,"distance":905.0,"tag":"설렁탕"},{"name":"언더프레셔","cate_1":"한식","cate_2":"한식\/백반\/한정식","cate_3":"한식 음식점업","area":"삼성동","address":"서울특별시 강남구 영동대로106길 37","lon":37.514229223147801,"lat":127.064063409118006,"rate":3.7,"distance":919.0,"tag":"커피전문점"},{"name":"전라도맛집","cate_1":"한식","cate_2":"부대찌개\/섞어찌개","cate_3":"한식 음식점업","area":"대치동","address":"서울특별시 강남구 선릉로 420","lon":37.502486363371801,"lat":127.050253504604996,"rate":0.0,"distance":876.0,"tag":"한식"},{"name":"일조룡","cate_1":"중식","cate_2":"중국음식\/중국집","cate_3":"중식 음식점업","area":"대치동","address":"서울특별시 강남구 삼성로 212","lon":37.499610581976597,"lat":127.065897098053,"rate":4.5,"distance":1146.0,"tag":"중화요리"},{"name":"해중천중화요리","cate_1":"중식","cate_2":"중국음식\/중국집","cate_3":"중식 음식점업","area":"삼성동","address":"서울특별시 강남구 봉은사로72길 8","lon":37.5115546035736,"lat":127.050704176953005,"rate":4.2,"distance":759.0,"tag":"중화요리"},{"name":"쿠모","cate_1":"양식","cate_2":"정통양식\/경양식","cate_3":"서양식 음식점업","area":"삼성동","address":"서울특별시 강남구 봉은사로72길 4","lon":37.511778298876493,"lat":127.050509050447005,"rate":0.0,"distance":788.0,"tag":"돈까스,우동"},{"name":"성북동청국장","cate_1":"한식","cate_2":"한식\/백반\/한정식","cate_3":"한식 음식점업","area":"삼성동","address":"서울특별시 강남구 봉은사로104길 6","lon":37.513950894759198,"lat":127.061917659944001,"rate":4.1,"distance":791.0,"tag":"찌개,전골"},{"name":"담소소사골순대","cate_1":"별식\/퓨전요리","cate_2":"순대전문점","cate_3":"한식 음식점업","area":"삼성동","address":"서울특별시 강남구 선릉로112길 18","lon":37.511337744546204,"lat":127.045039960669001,"rate":4.7,"distance":1195.0,"tag":"순대"},{"name":"칠랑고","cate_1":"양식","cate_2":"정통양식\/경양식","cate_3":"서양식 음식점업","area":"대치동","address":"서울특별시 강남구 역삼로67길 19","lon":37.502587064471797,"lat":127.052695185885,"rate":4.6,"distance":719.0,"tag":"패밀리레스토랑"},{"name":"새마을식당","cate_1":"닭\/오리요리","cate_2":"후라이드\/양념치킨","cate_3":"치킨 전문점","area":"대치동","address":"서울특별시 강남구 테헤란로64길 24","lon":37.503324791784202,"lat":127.051430444003003,"rate":1.7,"distance":737.0,"tag":"육류,고기"},{"name":"아그라","cate_1":"별식\/퓨전요리","cate_2":"동남아음식전문점","cate_3":"기타 외국식 음식점업","area":"삼성동","address":"서울특별시 강남구 영동대로 513","lon":37.5118203253706,"lat":127.059139102428006,"rate":3.0,"distance":480.0,"tag":"인도음식"},{"name":"홍대돈부리","cate_1":"일식\/수산물","cate_2":"음식점-일식","cate_3":"일식 음식점업","area":"삼성동","address":"서울특별시 강남구 영동대로 513","lon":37.512939396928893,"lat":127.057100286394004,"rate":2.1,"distance":591.0,"tag":"일식집"},{"name":"죠샌드위치","cate_1":"분식","cate_2":"라면김밥분식","cate_3":"분식 및 김밥 전문점","area":"삼성동","address":"서울특별시 강남구 영동대로 513","lon":37.5118203253706,"lat":127.059139102428006,"rate":5.0,"distance":480.0,"tag":"샌드위치"},{"name":"듬북담북","cate_1":"양식","cate_2":"정통양식\/경양식","cate_3":"서양식 음식점업","area":"대치동","address":"서울특별시 강남구 선릉로86길 26","lon":37.503517172128198,"lat":127.051823864438006,"rate":4.0,"distance":697.0,"tag":"해물,생선"},{"name":"김영희강남동태찜","cate_1":"한식","cate_2":"한식\/백반\/한정식","cate_3":"한식 음식점업","area":"삼성동","address":"서울특별시 강남구 삼성로95길 23","lon":37.507381700891507,"lat":127.053946642705,"rate":4.5,"distance":338.0,"tag":"해물,생선"},{"name":"대독장삼성역점","cate_1":"한식","cate_2":"한식\/백반\/한정식","cate_3":"한식 음식점업","area":"대치동","address":"서울특별시 강남구 영동대로85길 9","lon":37.507083435228601,"lat":127.062874525422998,"rate":2.7,"distance":455.0,"tag":"찌개,전골"},{"name":"유타로","cate_1":"일식\/수산물","cate_2":"음식점-일식","cate_3":"일식 음식점업","area":"대치동","address":"서울특별시 강남구 선릉로86길 15","lon":37.503518098472199,"lat":127.050817251517998,"rate":4.0,"distance":766.0,"tag":"일본식라면"},{"name":"남도사계고운님","cate_1":"한식","cate_2":"한식\/백반\/한정식","cate_3":"한식 음식점업","area":"대치동","address":"서울특별시 강남구 삼성로81길 22","lon":37.504352002035098,"lat":127.055930238824999,"rate":3.8,"distance":400.0,"tag":"해물,생선"},{"name":"또래오래대치점","cate_1":"닭\/오리요리","cate_2":"후라이드\/양념치킨","cate_3":"치킨 전문점","area":"대치동","address":"서울특별시 강남구 역삼로88길 11","lon":37.503179675060601,"lat":127.061464320240006,"rate":5.0,"distance":594.0,"tag":"치킨"},{"name":"네네치킨","cate_1":"닭\/오리요리","cate_2":"후라이드\/양념치킨","cate_3":"치킨 전문점","area":"대치동","address":"서울특별시 강남구 삼성로 417","lon":37.504598445145803,"lat":127.057454025148999,"rate":1.0,"distance":340.0,"tag":"치킨"},{"name":"샐러드박스","cate_1":"한식","cate_2":"한식\/백반\/한정식","cate_3":"한식 음식점업","area":"삼성동","address":"서울특별시 강남구 테헤란로 421","lon":37.505982612802697,"lat":127.052516554823001,"rate":0.0,"distance":498.0,"tag":"양식"},{"name":"스시효","cate_1":"일식\/수산물","cate_2":"음식점-초밥전문","cate_3":"일식 음식점업","area":"삼성동","address":"서울특별시 강남구 테헤란로 517","lon":37.508608381445796,"lat":127.059744963349999,"rate":2.8,"distance":205.0,"tag":"초밥,롤"},{"name":"옥상달빛","cate_1":"닭\/오리요리","cate_2":"후라이드\/양념치킨","cate_3":"치킨 전문점","area":"삼성동","address":"서울특별시 강남구 테헤란로 517","lon":37.508608381445796,"lat":127.059744963349999,"rate":0.0,"distance":205.0,"tag":"치킨"},{"name":"델리유","cate_1":"양식","cate_2":"정통양식\/경양식","cate_3":"서양식 음식점업","area":"삼성동","address":"서울특별시 강남구 삼성로107길 18","lon":37.511279736461503,"lat":127.052381730231005,"rate":4.2,"distance":623.0,"tag":"제과,베이커리"},{"name":"운봉","cate_1":"중식","cate_2":"중국음식\/중국집","cate_3":"중식 음식점업","area":"대치동","address":"서울특별시 강남구 삼성로 348","lon":37.502665610998498,"lat":127.059140894153998,"rate":2.4,"distance":567.0,"tag":"중화요리"},{"name":"청준닭볶이","cate_1":"닭\/오리요리","cate_2":"닭도리탕전문","cate_3":"한식 음식점업","area":"대치동","address":"서울특별시 강남구 선릉로76길 23","lon":37.5019627682194,"lat":127.052375086633006,"rate":3.2,"distance":791.0,"tag":"닭요리"},{"name":"최우영식당삼성점","cate_1":"일식\/수산물","cate_2":"음식점-일식","cate_3":"일식 음식점업","area":"삼성동","address":"서울특별시 강남구 삼성로 620","lon":37.514957844146096,"lat":127.052606708949,"rate":2.3,"distance":931.0,"tag":"회"},{"name":"신촌설렁탕","cate_1":"한식","cate_2":"설렁탕집","cate_3":"한식 음식점업","area":"삼성동","address":"서울특별시 강남구 봉은사로114길 32","lon":37.512932673939403,"lat":127.065323871611,"rate":2.7,"distance":889.0,"tag":"설렁탕"},{"name":"미스터순두부보쌈","cate_1":"한식","cate_2":"족발\/보쌈전문","cate_3":"한식 음식점업","area":"삼성동","address":"서울특별시 강남구 영동대로 513","lon":37.512939396928893,"lat":127.057100286394004,"rate":1.8,"distance":591.0,"tag":"두부전문점"},{"name":"더펍비스트로","cate_1":"양식","cate_2":"정통양식\/경양식","cate_3":"서양식 음식점업","area":"삼성동","address":"서울특별시 강남구 삼성로108길 23","lon":37.512335454965502,"lat":127.055942803727007,"rate":4.2,"distance":545.0,"tag":"양식"},{"name":"밤장어","cate_1":"한식","cate_2":"한식\/백반\/한정식","cate_3":"한식 음식점업","area":"대치동","address":"서울특별시 강남구 삼성로85길 33","lon":37.504279981146098,"lat":127.054811431542007,"rate":3.0,"distance":456.0,"tag":"장어"},{"name":"루샌드위치","cate_1":"패스트푸드","cate_2":"패스트푸드","cate_3":"그외 기타 음식점업","area":"대치동","address":"서울특별시 강남구 역삼로70길 28","lon":37.499652053874499,"lat":127.054123339891007,"rate":3.7,"distance":945.0,"tag":"샌드위치"},{"name":"도명골청국장","cate_1":"한식","cate_2":"한식\/백반\/한정식","cate_3":"한식 음식점업","area":"삼성동","address":"서울특별시 강남구 봉은사로114길 38","lon":37.512653463780495,"lat":127.065338665086998,"rate":0.0,"distance":870.0,"tag":"한식"},{"name":"세광양대창","cate_1":"한식","cate_2":"한식\/백반\/한정식","cate_3":"한식 음식점업","area":"삼성동","address":"서울특별시 강남구 테헤란로83길 29","lon":37.509270754788496,"lat":127.056931526851997,"rate":3.5,"distance":195.0,"tag":"곱창,막창"},{"name":"우리집젤라또","cate_1":"한식","cate_2":"한식\/백반\/한정식","cate_3":"한식 음식점업","area":"대치동","address":"서울특별시 강남구 선릉로68길 7","lon":37.499060571737999,"lat":127.052276050253994,"rate":4.0,"distance":1070.0,"tag":"아이스크림"},{"name":"대치꽈배기","cate_1":"분식","cate_2":"라면김밥분식","cate_3":"분식 및 김밥 전문점","area":"대치동","address":"서울특별시 강남구 선릉로 338","lon":37.499883106371101,"lat":127.051473983904998,"rate":2.5,"distance":1026.0,"tag":"제과,베이커리"},{"name":"김밥천국","cate_1":"분식","cate_2":"라면김밥분식","cate_3":"분식 및 김밥 전문점","area":"삼성동","address":"서울특별시 강남구 삼성로 517","lon":37.5080786526444,"lat":127.055464807234998,"rate":2.0,"distance":208.0,"tag":"분식"},{"name":"자연은맛있다","cate_1":"한식","cate_2":"한식\/백반\/한정식","cate_3":"한식 음식점업","area":"삼성동","address":"서울특별시 강남구 영동대로 513","lon":37.5118203253706,"lat":127.059139102428006,"rate":3.7,"distance":480.0,"tag":"한식"},{"name":"소노야코엑스점","cate_1":"일식\/수산물","cate_2":"음식점-일식","cate_3":"일식 음식점업","area":"삼성동","address":"서울특별시 강남구 영동대로 513","lon":37.5118203253706,"lat":127.059139102428006,"rate":1.1,"distance":480.0,"tag":"돈까스,우동"},{"name":"이남장","cate_1":"한식","cate_2":"한식\/백반\/한정식","cate_3":"한식 음식점업","area":"대치동","address":"서울특별시 강남구 테헤란로64길 14","lon":37.503951833442301,"lat":127.050970103005,"rate":5.0,"distance":726.0,"tag":"한식"},{"name":"앵그리버거","cate_1":"한식","cate_2":"한식\/백반\/한정식","cate_3":"한식 음식점업","area":"삼성동","address":"서울특별시 강남구 선릉로 514","lon":37.505595146508803,"lat":127.049150940996,"rate":0.0,"distance":793.0,"tag":"햄버거"},{"name":"치즈쇼피자","cate_1":"패스트푸드","cate_2":"피자전문","cate_3":"피자, 햄버거, 샌드위치 및 유사 음식점업","area":"대치동","address":"서울특별시 강남구 선릉로64길 11-2","lon":37.498041269008702,"lat":127.053261532356004,"rate":0.0,"distance":1139.0,"tag":"피자"},{"name":"맛난칼국수","cate_1":"분식","cate_2":"라면김밥분식","cate_3":"분식 및 김밥 전문점","area":"대치동","address":"서울특별시 강남구 삼성로 212","lon":37.499610581976597,"lat":127.065897098053,"rate":5.0,"distance":1146.0,"tag":"국수"},{"name":"놀부부대찌개철판구이","cate_1":"한식","cate_2":"부대찌개\/섞어찌개","cate_3":"한식 음식점업","area":"대치동","address":"서울특별시 강남구 선릉로86길 37","lon":37.504100503981,"lat":127.052653443004004,"rate":1.0,"distance":599.0,"tag":"찌개,전골"},{"name":"청국장서갈비","cate_1":"한식","cate_2":"갈비\/삼겹살","cate_3":"한식 음식점업","area":"대치동","address":"서울특별시 강남구 선릉로 420","lon":37.502486363371801,"lat":127.050253504604996,"rate":3.3,"distance":876.0,"tag":"한식"},{"name":"처갓집양념치킨","cate_1":"닭\/오리요리","cate_2":"후라이드\/양념치킨","cate_3":"치킨 전문점","area":"대치동","address":"서울특별시 강남구 선릉로66길 8","lon":37.498441173282799,"lat":127.052566612481996,"rate":2.5,"distance":1122.0,"tag":"치킨"},{"name":"대치동함흥냉면","cate_1":"한식","cate_2":"냉면집","cate_3":"한식 음식점업","area":"대치동","address":"서울특별시 강남구 도곡로 424","lon":37.497259614827797,"lat":127.056924267263994,"rate":3.1,"distance":1157.0,"tag":"냉면"},{"name":"고운님","cate_1":"일식\/수산물","cate_2":"수산물전문음식점-종합","cate_3":"한식 음식점업","area":"대치동","address":"서울특별시 강남구 영동대로86길 11","lon":37.508073508150495,"lat":127.065011204919998,"rate":3.8,"distance":641.0,"tag":"해물,생선"},{"name":"삼성골","cate_1":"한식","cate_2":"한식\/백반\/한정식","cate_3":"한식 음식점업","area":"대치동","address":"서울특별시 강남구 영동대로86길 12","lon":37.507813480824296,"lat":127.065172799170995,"rate":4.5,"distance":654.0,"tag":"한식"},{"name":"한솥도시락","cate_1":"패스트푸드","cate_2":"도시락전문점","cate_3":"한식 음식점업","area":"대치동","address":"서울특별시 강남구 선릉로90길 56","lon":37.505071516843699,"lat":127.053512070975003,"rate":2.3,"distance":472.0,"tag":"도시락"},{"name":"올래곱창","cate_1":"한식","cate_2":"곱창\/양구이전문","cate_3":"한식 음식점업","area":"대치동","address":"서울특별시 강남구 역삼로 420","lon":37.500966596830402,"lat":127.052873995444997,"rate":2.5,"distance":859.0,"tag":"곱창,막창"},{"name":"제주은희네해장국","cate_1":"한식","cate_2":"해장국\/감자탕","cate_3":"한식 음식점업","area":"삼성동","address":"서울특별시 강남구 삼성로91길 28","lon":37.506768682656997,"lat":127.053909136475994,"rate":2.5,"distance":354.0,"tag":"해장국"},{"name":"생선지존진땡이","cate_1":"한식","cate_2":"한식\/백반\/한정식","cate_3":"한식 음식점업","area":"삼성동","address":"서울특별시 강남구 영동대로106길 41","lon":37.514240921084898,"lat":127.064402615689005,"rate":0.0,"distance":938.0,"tag":"해물,생선"},{"name":"피자리아시오","cate_1":"패스트푸드","cate_2":"피자전문","cate_3":"피자, 햄버거, 샌드위치 및 유사 음식점업","area":"대치동","address":"서울특별시 강남구 삼성로63길 15","lon":37.499627190907297,"lat":127.058907590323997,"rate":4.2,"distance":897.0,"tag":"양식"},{"name":"수랏간","cate_1":"한식","cate_2":"한식\/백반\/한정식","cate_3":"한식 음식점업","area":"대치동","address":"서울특별시 강남구 역삼로 410","lon":37.500716895993101,"lat":127.052074160518998,"rate":3.2,"distance":920.0,"tag":"육류,고기"},{"name":"작은어촌","cate_1":"한식","cate_2":"한식\/백반\/한정식","cate_3":"한식 음식점업","area":"대치동","address":"서울특별시 강남구 선릉로 318","lon":37.498061044385203,"lat":127.052356538382995,"rate":0.0,"distance":1168.0,"tag":"회"},{"name":"김밥천국","cate_1":"분식","cate_2":"라면김밥분식","cate_3":"분식 및 김밥 전문점","area":"대치동","address":"서울특별시 강남구 테헤란로114길 20","lon":37.508348562372497,"lat":127.066749647747997,"rate":2.3,"distance":797.0,"tag":"분식"},{"name":"신전떡볶이","cate_1":"분식","cate_2":"떡볶이전문","cate_3":"분식 및 김밥 전문점","area":"대치동","address":"서울특별시 강남구 선릉로 420","lon":37.502486363371801,"lat":127.050253504604996,"rate":2.1,"distance":876.0,"tag":"떡볶이"},{"name":"전주집","cate_1":"한식","cate_2":"한식\/백반\/한정식","cate_3":"한식 음식점업","area":"삼성동","address":"서울특별시 강남구 테헤란로77길 11-9","lon":37.506939413002698,"lat":127.053850428570001,"rate":5.0,"distance":354.0,"tag":"육류,고기"},{"name":"깻잎치킨","cate_1":"닭\/오리요리","cate_2":"후라이드\/양념치킨","cate_3":"치킨 전문점","area":"삼성동","address":"서울특별시 강남구 테헤란로87길 17","lon":37.508732264372199,"lat":127.058329544526003,"rate":2.6,"distance":131.0,"tag":"닭강정"},{"name":"서울만두","cate_1":"분식","cate_2":"국수\/만두\/칼국수","cate_3":"분식 및 김밥 전문점","area":"삼성동","address":"서울특별시 강남구 테헤란로 517","lon":37.508608381445796,"lat":127.059744963349999,"rate":2.0,"distance":205.0,"tag":"분식"},{"name":"찰스김밥","cate_1":"분식","cate_2":"라면김밥분식","cate_3":"분식 및 김밥 전문점","area":"대치동","address":"서울특별시 강남구 선릉로 416","lon":37.502054900561198,"lat":127.050383378895006,"rate":2.8,"distance":900.0,"tag":"분식"},{"name":"본정돈까스","cate_1":"양식","cate_2":"돈가스전문점","cate_3":"서양식 음식점업","area":"대치동","address":"서울특별시 강남구 삼성로63길 17","lon":37.499571511105202,"lat":127.058704717463996,"rate":4.6,"distance":902.0,"tag":"돈까스,우동"},{"name":"레몬도시락","cate_1":"패스트푸드","cate_2":"도시락전문점","cate_3":"한식 음식점업","area":"삼성동","address":"서울특별시 강남구 삼성로 517","lon":37.5080786526444,"lat":127.055464807234998,"rate":2.0,"distance":208.0,"tag":"도시락"},{"name":"해초록사랑","cate_1":"일식\/수산물","cate_2":"횟집","cate_3":"한식 음식점업","area":"삼성동","address":"서울특별시 강남구 삼성로 539","lon":37.509838119310999,"lat":127.054639549784994,"rate":3.8,"distance":368.0,"tag":"회"},{"name":"신호탕떡볶이","cate_1":"분식","cate_2":"떡볶이전문","cate_3":"분식 및 김밥 전문점","area":"삼성동","address":"서울특별시 강남구 삼성로103길 12","lon":37.510386662713003,"lat":127.053377092172994,"rate":0.0,"distance":492.0,"tag":"떡볶이"},{"name":"일우별관","cate_1":"한식","cate_2":"한식\/백반\/한정식","cate_3":"한식 음식점업","area":"삼성동","address":"서울특별시 강남구 영동대로96길 37","lon":37.511663653210597,"lat":127.065509367364996,"rate":0.0,"distance":816.0,"tag":"한식"},{"name":"우노","cate_1":"한식","cate_2":"한식\/백반\/한정식","cate_3":"한식 음식점업","area":"대치동","address":"서울특별시 강남구 테헤란로70길 10","lon":37.504978610728003,"lat":127.053162623111007,"rate":4.7,"distance":503.0,"tag":"육류,고기"},{"name":"교토가츠규봉은사역점","cate_1":"일식\/수산물","cate_2":"음식점-일식","cate_3":"일식 음식점업","area":"삼성동","address":"서울특별시 강남구 영동대로 602","lon":37.5145808720792,"lat":127.060688099708997,"rate":3.0,"distance":813.0,"tag":"돈까스,우동"},{"name":"롤링핀","cate_1":"패스트푸드","cate_2":"패스트푸드","cate_3":"그외 기타 음식점업","area":"삼성동","address":"서울특별시 강남구 테헤란로 517","lon":37.508608381445796,"lat":127.059744963349999,"rate":1.5,"distance":205.0,"tag":"제과,베이커리"},{"name":"코끼리분식","cate_1":"분식","cate_2":"라면김밥분식","cate_3":"분식 및 김밥 전문점","area":"대치동","address":"서울특별시 강남구 선릉로 338","lon":37.499883106371101,"lat":127.051473983904998,"rate":0.0,"distance":1026.0,"tag":"분식"},{"name":"김영희강남동태찜","cate_1":"일식\/수산물","cate_2":"해물찜\/탕전문","cate_3":"한식 음식점업","area":"대치동","address":"서울특별시 강남구 선릉로62길 13","lon":37.497520883513907,"lat":127.053539523479003,"rate":4.5,"distance":1186.0,"tag":"해물,생선"},{"name":"고피자","cate_1":"한식","cate_2":"한식\/백반\/한정식","cate_3":"한식 음식점업","area":"삼성동","address":"서울특별시 강남구 영동대로 513","lon":37.5118203253706,"lat":127.059139102428006,"rate":5.0,"distance":480.0,"tag":"피자"},{"name":"홍스나나","cate_1":"일식\/수산물","cate_2":"음식점-일식","cate_3":"일식 음식점업","area":"삼성동","address":"서울특별시 강남구 봉은사로61길 17","lon":37.512211258544497,"lat":127.046092105876994,"rate":4.0,"distance":1148.0,"tag":"일식"},{"name":"쫀득이보쌈","cate_1":"한식","cate_2":"족발\/보쌈전문","cate_3":"한식 음식점업","area":"대치동","address":"서울특별시 강남구 선릉로86길 38","lon":37.503794992197598,"lat":127.052759094902001,"rate":2.0,"distance":615.0,"tag":"족발,보쌈"},{"name":"강남집밥","cate_1":"한식","cate_2":"한식\/백반\/한정식","cate_3":"한식 음식점업","area":"삼성동","address":"서울특별시 강남구 테헤란로107길 10","lon":37.510483475974098,"lat":127.065535392317003,"rate":3.0,"distance":755.0,"tag":"한식뷔페"},{"name":"잇쇼우","cate_1":"일식\/수산물","cate_2":"음식점-일식","cate_3":"일식 음식점업","area":"삼성동","address":"서울특별시 강남구 선릉로 524","lon":37.5066430806136,"lat":127.048368528927,"rate":3.4,"distance":836.0,"tag":"돈까스,우동"},{"name":"치쿠린","cate_1":"일식\/수산물","cate_2":"음식점-일식","cate_3":"일식 음식점업","area":"삼성동","address":"서울특별시 강남구 삼성로 517","lon":37.5080786526444,"lat":127.055464807234998,"rate":5.0,"distance":208.0,"tag":"일본식라면"},{"name":"강남동태찜","cate_1":"일식\/수산물","cate_2":"매운탕전문","cate_3":"한식 음식점업","area":"대치동","address":"서울특별시 강남구 테헤란로 440","lon":37.505804183147696,"lat":127.056115540456005,"rate":4.5,"distance":251.0,"tag":"해물,생선"},{"name":"강남면옥","cate_1":"한식","cate_2":"냉면집","cate_3":"한식 음식점업","area":"대치동","address":"서울특별시 강남구 도곡로 428","lon":37.497461076734197,"lat":127.057328865524994,"rate":2.6,"distance":1133.0,"tag":"냉면"},{"name":"더착한피자","cate_1":"패스트푸드","cate_2":"피자전문","cate_3":"피자, 햄버거, 샌드위치 및 유사 음식점업","area":"대치동","address":"서울특별시 강남구 역삼로78길 15","lon":37.501560565068402,"lat":127.057288637623003,"rate":4.0,"distance":678.0,"tag":"피자"},{"name":"북창동순두부","cate_1":"한식","cate_2":"순두부전문","cate_3":"한식 음식점업","area":"대치동","address":"서울특별시 강남구 역삼로63길 24","lon":37.502779651848598,"lat":127.051991531653002,"rate":2.7,"distance":743.0,"tag":"두부전문점"},{"name":"캠토","cate_1":"패스트푸드","cate_2":"패스트푸드","cate_3":"그외 기타 음식점업","area":"대치동","address":"서울특별시 강남구 도곡로78길 6","lon":37.497717050444201,"lat":127.058920252958998,"rate":0.0,"distance":1109.0,"tag":"토스트"},{"name":"일호식당","cate_1":"한식","cate_2":"한식\/백반\/한정식","cate_3":"한식 음식점업","area":"대치동","address":"서울특별시 강남구 역삼로 459","lon":37.502831288402703,"lat":127.057317900582007,"rate":3.1,"distance":537.0,"tag":"육류,고기"},{"name":"고씨떡볶이","cate_1":"분식","cate_2":"라면김밥분식","cate_3":"분식 및 김밥 전문점","area":"삼성동","address":"서울특별시 강남구 봉은사로84길 34","lon":37.511156637812398,"lat":127.056138631899998,"rate":4.7,"distance":416.0,"tag":"떡볶이"},{"name":"경평면옥","cate_1":"한식","cate_2":"냉면집","cate_3":"한식 음식점업","area":"삼성동","address":"서울특별시 강남구 삼성로104길 12","lon":37.510846965178601,"lat":127.055724015725005,"rate":3.5,"distance":399.0,"tag":"냉면"},{"name":"죠스떡볶이","cate_1":"분식","cate_2":"떡볶이전문","cate_3":"분식 및 김밥 전문점","area":"대치동","address":"서울특별시 강남구 선릉로64길 5","lon":37.497837889095294,"lat":127.052619471602995,"rate":2.6,"distance":1181.0,"tag":"떡볶이"},{"name":"티엔티엔티엔","cate_1":"중식","cate_2":"중국음식\/중국집","cate_3":"중식 음식점업","area":"삼성동","address":"서울특별시 강남구 테헤란로77길 22","lon":37.508005811706802,"lat":127.054244157978999,"rate":4.0,"distance":313.0,"tag":"퓨전중식"},{"name":"김밥천국","cate_1":"분식","cate_2":"라면김밥분식","cate_3":"분식 및 김밥 전문점","area":"대치동","address":"서울특별시 강남구 삼성로85길 42","lon":37.504622755939501,"lat":127.053732632052998,"rate":2.3,"distance":489.0,"tag":"분식"},{"name":"하남돼지집","cate_1":"한식","cate_2":"갈비\/삼겹살","cate_3":"한식 음식점업","area":"대치동","address":"서울특별시 강남구 선릉로64길 9","lon":37.497976479306601,"lat":127.053047473787004,"rate":2.2,"distance":1153.0,"tag":"삼겹살"},{"name":"오감국시","cate_1":"분식","cate_2":"국수\/만두\/칼국수","cate_3":"분식 및 김밥 전문점","area":"대치동","address":"서울특별시 강남구 테헤란로78길 14-9","lon":37.5049739053172,"lat":127.054825303672999,"rate":3.0,"distance":394.0,"tag":"국수"},{"name":"둥이","cate_1":"한식","cate_2":"갈비\/삼겹살","cate_3":"한식 음식점업","area":"대치동","address":"서울특별시 강남구 삼성로 307","lon":37.499403832282098,"lat":127.060278844525001,"rate":3.8,"distance":943.0,"tag":"냉면"},{"name":"강남칼국수","cate_1":"분식","cate_2":"국수\/만두\/칼국수","cate_3":"분식 및 김밥 전문점","area":"삼성동","address":"서울특별시 강남구 영동대로 602","lon":37.5145808720792,"lat":127.060688099708997,"rate":5.0,"distance":813.0,"tag":"국수"},{"name":"강남목호등대","cate_1":"일식\/수산물","cate_2":"횟집","cate_3":"한식 음식점업","area":"삼성동","address":"서울특별시 강남구 삼성로95길 15","lon":37.507737423700597,"lat":127.054485070126006,"rate":4.8,"distance":289.0,"tag":"회"},{"name":"더그릴앤커리","cate_1":"양식","cate_2":"정통양식\/경양식","cate_3":"서양식 음식점업","area":"대치동","address":"서울특별시 강남구 삼성로85길 11","lon":37.5045881509052,"lat":127.056164781275996,"rate":0.0,"distance":368.0,"tag":"양식"},{"name":"대치닭칼국수","cate_1":"분식","cate_2":"국수\/만두\/칼국수","cate_3":"분식 및 김밥 전문점","area":"대치동","address":"서울특별시 강남구 역삼로63길 19-10","lon":37.502377870833499,"lat":127.051329324465001,"rate":0.0,"distance":816.0,"tag":"한식"},{"name":"전주한정식","cate_1":"한식","cate_2":"한정식전문","cate_3":"한식 음식점업","area":"대치동","address":"서울특별시 강남구 선릉로82길 25","lon":37.503050667295902,"lat":127.052078585333007,"rate":4.5,"distance":716.0,"tag":"한식"},{"name":"두루치기유선생","cate_1":"한식","cate_2":"한식\/백반\/한정식","cate_3":"한식 음식점업","area":"삼성동","address":"서울특별시 강남구 봉은사로114길 42","lon":37.512157663590898,"lat":127.065310913565995,"rate":1.5,"distance":834.0,"tag":"불고기,두루치기"},{"name":"평안도순대국","cate_1":"별식\/퓨전요리","cate_2":"순대전문점","cate_3":"한식 음식점업","area":"대치동","address":"서울특별시 강남구 선릉로90길 38","lon":37.504737467415097,"lat":127.052306084963007,"rate":5.0,"distance":580.0,"tag":"순대"},{"name":"수궁갈비","cate_1":"한식","cate_2":"갈비\/삼겹살","cate_3":"한식 음식점업","area":"삼성동","address":"서울특별시 강남구 봉은사로97길 4","lon":37.514292300674804,"lat":127.058395429387005,"rate":2.6,"distance":741.0,"tag":"찌개,전골"},{"name":"선릉마실길","cate_1":"한식","cate_2":"한식\/백반\/한정식","cate_3":"한식 음식점업","area":"삼성동","address":"서울특별시 강남구 선릉로 530","lon":37.506960773168601,"lat":127.047538819135994,"rate":4.2,"distance":905.0,"tag":"전통찻집"},{"name":"신동궁감자탕뼈숯불구이","cate_1":"한식","cate_2":"해장국\/감자탕","cate_3":"한식 음식점업","area":"대치동","address":"서울특별시 강남구 선릉로86길 39","lon":37.5041021363552,"lat":127.052857006251998,"rate":3.6,"distance":585.0,"tag":"감자탕"},{"name":"보리밀","cate_1":"한식","cate_2":"한식\/백반\/한정식","cate_3":"한식 음식점업","area":"삼성동","address":"서울특별시 강남구 봉은사로108길 3-6","lon":37.514382566632094,"lat":127.064084117674,"rate":2.8,"distance":934.0,"tag":"한식"},{"name":"지호한방삼계탕삼성점","cate_1":"닭\/오리요리","cate_2":"삼계탕전문","cate_3":"한식 음식점업","area":"삼성동","address":"서울특별시 강남구 영동대로115길 16","lon":37.514517992657801,"lat":127.058449152758996,"rate":2.0,"distance":766.0,"tag":"닭요리"},{"name":"오성식당","cate_1":"한식","cate_2":"갈비\/삼겹살","cate_3":"한식 음식점업","area":"대치동","address":"서울특별시 강남구 삼성로84길 6","lon":37.505189395239803,"lat":127.058113908216001,"rate":4.6,"distance":275.0,"tag":"갈비"},{"name":"명가교동","cate_1":"중식","cate_2":"중국음식\/중국집","cate_3":"중식 음식점업","area":"대치동","address":"서울특별시 강남구 도곡로63길 12","lon":37.497788955569199,"lat":127.054384334893001,"rate":1.9,"distance":1136.0,"tag":"중화요리"},{"name":"수궁식당","cate_1":"한식","cate_2":"한식\/백반\/한정식","cate_3":"한식 음식점업","area":"삼성동","address":"서울특별시 강남구 봉은사로97길 4","lon":37.514292300674804,"lat":127.058395429387005,"rate":2.6,"distance":741.0,"tag":"찌개,전골"},{"name":"백구분식","cate_1":"분식","cate_2":"라면김밥분식","cate_3":"분식 및 김밥 전문점","area":"대치동","address":"서울특별시 강남구 테헤란로114길 30","lon":37.507791749250302,"lat":127.066982795507997,"rate":0.0,"distance":814.0,"tag":"한식"},{"name":"용수사","cate_1":"일식\/수산물","cate_2":"음식점-일식","cate_3":"일식 음식점업","area":"대치동","address":"서울특별시 강남구 삼성로86길 7","lon":37.505764570423295,"lat":127.057925714358007,"rate":5.0,"distance":210.0,"tag":"일식집"},{"name":"보리밀","cate_1":"한식","cate_2":"한식\/백반\/한정식","cate_3":"한식 음식점업","area":"삼성동","address":"서울특별시 강남구 봉은사로108길 5","lon":37.514361947768307,"lat":127.063756333737999,"rate":2.8,"distance":915.0,"tag":"한식"},{"name":"담","cate_1":"한식","cate_2":"한식\/백반\/한정식","cate_3":"한식 음식점업","area":"삼성동","address":"서울특별시 강남구 봉은사로78길 12","lon":37.511949624670095,"lat":127.052769159820002,"rate":4.1,"distance":650.0,"tag":"피부과"},{"name":"오니기리와이규동","cate_1":"일식\/수산물","cate_2":"음식점-일식","cate_3":"일식 음식점업","area":"대치동","address":"서울특별시 강남구 선릉로86길 15","lon":37.503518098472199,"lat":127.050817251517998,"rate":2.1,"distance":766.0,"tag":"퓨전일식"},{"name":"고운님","cate_1":"일식\/수산물","cate_2":"수산물전문음식점-종합","cate_3":"한식 음식점업","area":"대치동","address":"서울특별시 강남구 삼성로81길 22","lon":37.504352002035098,"lat":127.055930238824999,"rate":3.8,"distance":400.0,"tag":"해물,생선"},{"name":"죠샌드위치삼성2호점","cate_1":"패스트푸드","cate_2":"샌드위치전문점","cate_3":"피자, 햄버거, 샌드위치 및 유사 음식점업","area":"대치동","address":"서울특별시 강남구 테헤란로82길 11","lon":37.506225145259798,"lat":127.058055653055007,"rate":0.0,"distance":160.0,"tag":"샌드위치"},{"name":"선릉떡볶이","cate_1":"분식","cate_2":"라면김밥분식","cate_3":"분식 및 김밥 전문점","area":"대치동","address":"서울특별시 강남구 테헤란로 422","lon":37.505309428993797,"lat":127.052841753880003,"rate":4.5,"distance":506.0,"tag":"떡볶이"},{"name":"미웨이","cate_1":"한식","cate_2":"한식\/백반\/한정식","cate_3":"한식 음식점업","area":"삼성동","address":"서울특별시 강남구 삼성로 517","lon":37.5080786526444,"lat":127.055464807234998,"rate":1.0,"distance":208.0,"tag":"한식"},{"name":"안동찜닭해물떡찜","cate_1":"한식","cate_2":"한식\/백반\/한정식","cate_3":"한식 음식점업","area":"삼성동","address":"서울특별시 강남구 영동대로 513","lon":37.5118203253706,"lat":127.059139102428006,"rate":1.9,"distance":480.0,"tag":"닭요리"},{"name":"쿠사파스타","cate_1":"양식","cate_2":"스파게티전문점","cate_3":"서양식 음식점업","area":"대치동","address":"서울특별시 강남구 삼성로69길 11","lon":37.501596433201698,"lat":127.058396551124005,"rate":5.0,"distance":675.0,"tag":"이탈리안"},{"name":"옛날한우곱창","cate_1":"한식","cate_2":"한식\/백반\/한정식","cate_3":"한식 음식점업","area":"삼성동","address":"서울특별시 강남구 삼성로103길 11","lon":37.510144761927499,"lat":127.053549814058996,"rate":4.6,"distance":464.0,"tag":"곱창,막창"},{"name":"예자네밥상","cate_1":"한식","cate_2":"한식\/백반\/한정식","cate_3":"한식 음식점업","area":"대치동","address":"서울특별시 강남구 테헤란로114길 30","lon":37.507791749250302,"lat":127.066982795507997,"rate":4.6,"distance":814.0,"tag":"한식"},{"name":"호남식당","cate_1":"한식","cate_2":"한식\/백반\/한정식","cate_3":"한식 음식점업","area":"대치동","address":"서울특별시 강남구 선릉로68길 12","lon":37.499028523882302,"lat":127.052774071075007,"rate":0.0,"distance":1054.0,"tag":"한식"},{"name":"고운님한우곱창","cate_1":"한식","cate_2":"한식\/백반\/한정식","cate_3":"한식 음식점업","area":"대치동","address":"서울특별시 강남구 삼성로81길 22","lon":37.504352002035098,"lat":127.055930238824999,"rate":3.0,"distance":400.0,"tag":"곱창,막창"},{"name":"화포식당","cate_1":"한식","cate_2":"한식\/백반\/한정식","cate_3":"한식 음식점업","area":"대치동","address":"서울특별시 강남구 선릉로86길 44-4","lon":37.503808716079298,"lat":127.053347050414004,"rate":3.9,"distance":578.0,"tag":"육류,고기"},{"name":"매드포갈릭","cate_1":"양식","cate_2":"패밀리레스토랑","cate_3":"서양식 음식점업","area":"삼성동","address":"서울특별시 강남구 봉은사로 516","lon":37.513209661459598,"lat":127.055965726981,"rate":4.1,"distance":639.0,"tag":"패밀리레스토랑"},{"name":"맥도날드삼성역점","cate_1":"패스트푸드","cate_2":"패스트푸드","cate_3":"그외 기타 음식점업","area":"삼성동","address":"서울특별시 강남구 삼성로92길 29","lon":37.508312235959693,"lat":127.058764633486007,"rate":1.8,"distance":115.0,"tag":"패스트푸드"},{"name":"아모제푸드스칼렛테헤란로","cate_1":"양식","cate_2":"정통양식\/경양식","cate_3":"서양식 음식점업","area":"대치동","address":"서울특별시 강남구 테헤란로 424","lon":37.505485507518699,"lat":127.053450292223999,"rate":0.0,"distance":450.0,"tag":"패밀리레스토랑"},{"name":"브라운돈까스","cate_1":"양식","cate_2":"정통양식\/경양식","cate_3":"서양식 음식점업","area":"삼성동","address":"서울특별시 강남구 선릉로 520","lon":37.505959441797103,"lat":127.048512932931999,"rate":1.8,"distance":837.0,"tag":"돈까스,우동"},{"name":"맛바라기","cate_1":"한식","cate_2":"한식\/백반\/한정식","cate_3":"한식 음식점업","area":"대치동","address":"서울특별시 강남구 테헤란로 504","lon":37.506615796088298,"lat":127.057326866248005,"rate":5.0,"distance":121.0,"tag":"한식"},{"name":"강남동태찜","cate_1":"일식\/수산물","cate_2":"수산물전문음식점-종합","cate_3":"한식 음식점업","area":"대치동","address":"서울특별시 강남구 삼성로85길 39","lon":37.504221578426197,"lat":127.054269276563005,"rate":4.5,"distance":490.0,"tag":"해물,생선"},{"name":"더덕순대","cate_1":"한식","cate_2":"한식\/백반\/한정식","cate_3":"한식 음식점업","area":"대치동","address":"서울특별시 강남구 선릉로86길 16-3","lon":37.503179547638197,"lat":127.051296560701999,"rate":5.0,"distance":756.0,"tag":"순대"},{"name":"키친바락","cate_1":"일식\/수산물","cate_2":"음식점-일식","cate_3":"일식 음식점업","area":"대치동","address":"서울특별시 강남구 삼성로84길 23","lon":37.505821515157798,"lat":127.059417982099006,"rate":4.6,"distance":250.0,"tag":"일식"},{"name":"지지미","cate_1":"일식\/수산물","cate_2":"음식점-일식","cate_3":"일식 음식점업","area":"대치동","address":"서울특별시 강남구 삼성로58길 29","lon":37.499195802037697,"lat":127.063583820522993,"rate":3.1,"distance":1071.0,"tag":"한식"},{"name":"강남꿀돼지","cate_1":"한식","cate_2":"한식\/백반\/한정식","cate_3":"한식 음식점업","area":"삼성동","address":"서울특별시 강남구 봉은사로108길 3-14","lon":37.514459034192896,"lat":127.064637440368998,"rate":5.0,"distance":970.0,"tag":"육류,고기"},{"name":"전주집","cate_1":"한식","cate_2":"한식\/백반\/한정식","cate_3":"한식 음식점업","area":"삼성동","address":"서울특별시 강남구 삼성로100길 13","lon":37.509825469169897,"lat":127.056438171267004,"rate":5.0,"distance":269.0,"tag":"육류,고기"},{"name":"한국피자헛한티","cate_1":"패스트푸드","cate_2":"피자전문","cate_3":"피자, 햄버거, 샌드위치 및 유사 음식점업","area":"대치동","address":"서울특별시 강남구 선릉로 340","lon":37.500216191012896,"lat":127.051435841575994,"rate":3.0,"distance":997.0,"tag":"피자"},{"name":"미스터순두부","cate_1":"한식","cate_2":"순두부전문","cate_3":"한식 음식점업","area":"삼성동","address":"서울특별시 강남구 영동대로 511","lon":37.510348492347802,"lat":127.061012608393,"rate":1.8,"distance":415.0,"tag":"두부전문점"},{"name":"포메인","cate_1":"별식\/퓨전요리","cate_2":"동남아음식전문점","cate_3":"기타 외국식 음식점업","area":"삼성동","address":"서울특별시 강남구 영동대로 513","lon":37.5102300305658,"lat":127.058582195981003,"rate":2.0,"distance":296.0,"tag":"동남아음식"},{"name":"스시타","cate_1":"일식\/수산물","cate_2":"음식점-초밥전문","cate_3":"일식 음식점업","area":"삼성동","address":"서울특별시 강남구 삼성로119길 8","lon":37.516239336739098,"lat":127.050610900387994,"rate":5.0,"distance":1145.0,"tag":"일식"},{"name":"왕푸징마라탕","cate_1":"중식","cate_2":"중국음식\/중국집","cate_3":"중식 음식점업","area":"삼성동","address":"서울특별시 강남구 테헤란로 517","lon":37.508608381445796,"lat":127.059744963349999,"rate":3.3,"distance":205.0,"tag":"중식"},{"name":"오도루","cate_1":"일식\/수산물","cate_2":"음식점-일식","cate_3":"일식 음식점업","area":"대치동","address":"서울특별시 강남구 삼성로58길 39","lon":37.499454434986397,"lat":127.064383566909001,"rate":2.9,"distance":1082.0,"tag":"초밥,롤"},{"name":"뮤즈","cate_1":"양식","cate_2":"정통양식\/경양식","cate_3":"서양식 음식점업","area":"삼성동","address":"서울특별시 강남구 테헤란로83길 41","lon":37.510033594489002,"lat":127.056548662509996,"rate":0.0,"distance":286.0,"tag":"양식"},{"name":"비빔밥","cate_1":"한식","cate_2":"돌솥\/비빕밥전문점","cate_3":"한식 음식점업","area":"대치동","address":"서울특별시 강남구 삼성로 212","lon":37.499610581976597,"lat":127.065897098053,"rate":4.6,"distance":1146.0,"tag":"육류,고기"},{"name":"사리원","cate_1":"한식","cate_2":"한식\/백반\/한정식","cate_3":"한식 음식점업","area":"삼성동","address":"서울특별시 강남구 영동대로 513","lon":37.5118203253706,"lat":127.059139102428006,"rate":2.5,"distance":480.0,"tag":"불고기,두루치기"},{"name":"한죽","cate_1":"한식","cate_2":"한식\/백반\/한정식","cate_3":"한식 음식점업","area":"대치동","address":"서울특별시 강남구 선릉로86길 42","lon":37.503941866680094,"lat":127.053096544971993,"rate":5.0,"distance":582.0,"tag":"삼계탕"},{"name":"싸리골","cate_1":"한식","cate_2":"한식\/백반\/한정식","cate_3":"한식 음식점업","area":"대치동","address":"서울특별시 강남구 선릉로86길 24","lon":37.503461934084093,"lat":127.051677531484003,"rate":2.7,"distance":710.0,"tag":"한식"},{"name":"튀김아저씨","cate_1":"분식","cate_2":"라면김밥분식","cate_3":"분식 및 김밥 전문점","area":"대치동","address":"서울특별시 강남구 삼성로 212","lon":37.499610581976597,"lat":127.065897098053,"rate":4.3,"distance":1146.0,"tag":"분식"},{"name":"둘둘치킨","cate_1":"닭\/오리요리","cate_2":"후라이드\/양념치킨","cate_3":"치킨 전문점","area":"삼성동","address":"서울특별시 강남구 테헤란로69길 9","lon":37.506503266843296,"lat":127.052272452297998,"rate":1.5,"distance":501.0,"tag":"치킨"},{"name":"비사벌전주콩나물국밥","cate_1":"한식","cate_2":"한식\/백반\/한정식","cate_3":"한식 음식점업","area":"대치동","address":"서울특별시 강남구 도곡로 440","lon":37.497876881986095,"lat":127.058624205857996,"rate":5.0,"distance":1089.0,"tag":"찌개,전골"},{"name":"스테이지나인","cate_1":"한식","cate_2":"한식\/백반\/한정식","cate_3":"한식 음식점업","area":"삼성동","address":"서울특별시 강남구 테헤란로79길 6","lon":37.507277246054599,"lat":127.055531458386994,"rate":5.0,"distance":201.0,"tag":"공유오피스"},{"name":"한솥","cate_1":"패스트푸드","cate_2":"도시락전문점","cate_3":"한식 음식점업","area":"대치동","address":"서울특별시 강남구 선릉로90길 56","lon":37.505071516843699,"lat":127.053512070975003,"rate":2.3,"distance":472.0,"tag":"도시락"},{"name":"둘둘치킨","cate_1":"닭\/오리요리","cate_2":"후라이드\/양념치킨","cate_3":"치킨 전문점","area":"대치동","address":"서울특별시 강남구 도곡로63길 12","lon":37.497788955569199,"lat":127.054384334893001,"rate":1.0,"distance":1136.0,"tag":"치킨"},{"name":"삼성국수","cate_1":"분식","cate_2":"국수\/만두\/칼국수","cate_3":"분식 및 김밥 전문점","area":"삼성동","address":"서울특별시 강남구 영동대로 611","lon":37.514714675119294,"lat":127.059385563017003,"rate":2.8,"distance":799.0,"tag":"국수"},{"name":"홍운장","cate_1":"중식","cate_2":"중국음식\/중국집","cate_3":"중식 음식점업","area":"대치동","address":"서울특별시 강남구 삼성로 341","lon":37.5018797881823,"lat":127.058901937518002,"rate":3.2,"distance":649.0,"tag":"중화요리"},{"name":"KFC","cate_1":"닭\/오리요리","cate_2":"후라이드\/양념치킨","cate_3":"치킨 전문점","area":"삼성동","address":"서울특별시 강남구 봉은사로 449","lon":37.511980697795401,"lat":127.048787153389995,"rate":1.4,"distance":927.0,"tag":"패스트푸드"},{"name":"최고야","cate_1":"한식","cate_2":"한식\/백반\/한정식","cate_3":"한식 음식점업","area":"삼성동","address":"서울특별시 강남구 삼성로100길 23-2","lon":37.510166501775998,"lat":127.057395324705993,"rate":4.0,"distance":282.0,"tag":"닭요리"},{"name":"의정부부대찌개","cate_1":"한식","cate_2":"부대찌개\/섞어찌개","cate_3":"한식 음식점업","area":"삼성동","address":"서울특별시 강남구 영동대로106길 38","lon":37.513959829503293,"lat":127.064179890475003,"rate":1.0,"distance":902.0,"tag":"찌개,전골"},{"name":"먹쇠네","cate_1":"분식","cate_2":"라면김밥분식","cate_3":"분식 및 김밥 전문점","area":"대치동","address":"서울특별시 강남구 영동대로86길 10-7","lon":37.507415801992494,"lat":127.065019408227997,"rate":0.0,"distance":641.0,"tag":"한식"},{"name":"신흥식당","cate_1":"한식","cate_2":"한식\/백반\/한정식","cate_3":"한식 음식점업","area":"대치동","address":"서울특별시 강남구 역삼로 406","lon":37.500605331078603,"lat":127.051645802823003,"rate":3.4,"distance":951.0,"tag":"육류,고기"},{"name":"크레이지후라이","cate_1":"분식","cate_2":"라면김밥분식","cate_3":"분식 및 김밥 전문점","area":"대치동","address":"서울특별시 강남구 테헤란로78길 16","lon":37.505049963096702,"lat":127.055322000640004,"rate":4.0,"distance":360.0,"tag":"떡볶이"},{"name":"나능이능이버섯백숙","cate_1":"한식","cate_2":"한식\/백반\/한정식","cate_3":"한식 음식점업","area":"대치동","address":"서울특별시 강남구 삼성로75길 32-11","lon":37.503633548026002,"lat":127.055102334759994,"rate":4.4,"distance":504.0,"tag":"닭요리"},{"name":"외고집설렁탕","cate_1":"한식","cate_2":"설렁탕집","cate_3":"한식 음식점업","area":"삼성동","address":"서울특별시 강남구 삼성로 555","lon":37.511012496207996,"lat":127.053889506250997,"rate":3.3,"distance":507.0,"tag":"설렁탕"},{"name":"참치공방","cate_1":"일식\/수산물","cate_2":"참치전문점","cate_3":"일식 음식점업","area":"대치동","address":"서울특별시 강남구 삼성로85길 39","lon":37.504230588077199,"lat":127.054269162911993,"rate":3.6,"distance":489.0,"tag":"일식"},{"name":"싸리골빈대떡파전","cate_1":"한식","cate_2":"파전전문","cate_3":"한식 음식점업","area":"대치동","address":"서울특별시 강남구 선릉로86길 24","lon":37.503461934084093,"lat":127.051677531484003,"rate":2.7,"distance":710.0,"tag":"한식"},{"name":"대원정","cate_1":"한식","cate_2":"한식\/백반\/한정식","cate_3":"한식 음식점업","area":"삼성동","address":"서울특별시 강남구 테헤란로77길 17","lon":37.507482437261402,"lat":127.054148964473001,"rate":2.0,"distance":319.0,"tag":"한식"},{"name":"마라전설마라탕","cate_1":"중식","cate_2":"중국음식\/중국집","cate_3":"중식 음식점업","area":"대치동","address":"서울특별시 강남구 영동대로85길 30","lon":37.506807964929997,"lat":127.061090889254004,"rate":3.3,"distance":308.0,"tag":"중화요리"},{"name":"국수마을","cate_1":"한식","cate_2":"한식\/백반\/한정식","cate_3":"한식 음식점업","area":"삼성동","address":"서울특별시 강남구 봉은사로114길 42","lon":37.512157663590898,"lat":127.065310913565995,"rate":0.0,"distance":834.0,"tag":"국수"},{"name":"카발","cate_1":"양식","cate_2":"정통양식\/경양식","cate_3":"서양식 음식점업","area":"대치동","address":"서울특별시 강남구 선릉로82길 7","lon":37.502670010571599,"lat":127.050680958201994,"rate":3.7,"distance":834.0,"tag":"이탈리안"},{"name":"한솥도시락","cate_1":"패스트푸드","cate_2":"도시락전문점","cate_3":"한식 음식점업","area":"대치동","address":"서울특별시 강남구 선릉로86길 7","lon":37.503288676177498,"lat":127.050299891840993,"rate":2.3,"distance":817.0,"tag":"도시락"},{"name":"해장옥","cate_1":"한식","cate_2":"설렁탕집","cate_3":"한식 음식점업","area":"대치동","address":"서울특별시 강남구 선릉로86길 37","lon":37.504100503981,"lat":127.052653443004004,"rate":3.0,"distance":599.0,"tag":"국밥"},{"name":"두꺼비식당","cate_1":"한식","cate_2":"한식\/백반\/한정식","cate_3":"한식 음식점업","area":"대치동","address":"서울특별시 강남구 역삼로 421","lon":37.501454749944799,"lat":127.053071405956004,"rate":3.4,"distance":803.0,"tag":"육류,고기"},{"name":"밥드림","cate_1":"한식","cate_2":"한식\/백반\/한정식","cate_3":"한식 음식점업","area":"삼성동","address":"서울특별시 강남구 봉은사로84길 11","lon":37.512577720853798,"lat":127.055815325720005,"rate":5.0,"distance":575.0,"tag":"한식"},{"name":"네모오징어","cate_1":"한식","cate_2":"한식\/백반\/한정식","cate_3":"한식 음식점업","area":"삼성동","address":"서울특별시 강남구 테헤란로77길 17","lon":37.507482437261402,"lat":127.054148964473001,"rate":3.7,"distance":319.0,"tag":"해물,생선"},{"name":"원조을지로골뱅이","cate_1":"한식","cate_2":"한식\/백반\/한정식","cate_3":"한식 음식점업","area":"삼성동","address":"서울특별시 강남구 삼성로100길 23-20","lon":37.510724197419599,"lat":127.057275199192006,"rate":0.0,"distance":345.0,"tag":"한식"},{"name":"병천순대","cate_1":"별식\/퓨전요리","cate_2":"순대전문점","cate_3":"한식 음식점업","area":"대치동","address":"서울특별시 강남구 선릉로90길 70","lon":37.505487817380001,"lat":127.054864066253998,"rate":3.0,"distance":351.0,"tag":"순대"},{"name":"빕스","cate_1":"양식","cate_2":"패밀리레스토랑","cate_3":"서양식 음식점업","area":"삼성동","address":"서울특별시 강남구 영동대로 513","lon":37.5118203253706,"lat":127.059139102428006,"rate":2.0,"distance":480.0,"tag":"패밀리레스토랑"},{"name":"투뿔등심고담삼성점","cate_1":"한식","cate_2":"갈비\/삼겹살","cate_3":"한식 음식점업","area":"삼성동","address":"서울특별시 강남구 테헤란로87길 33","lon":37.5098191857712,"lat":127.057908690998005,"rate":2.8,"distance":242.0,"tag":"육류,고기"},{"name":"일일향","cate_1":"한식","cate_2":"한식\/백반\/한정식","cate_3":"한식 음식점업","area":"삼성동","address":"서울특별시 강남구 봉은사로 620","lon":37.514492967366799,"lat":127.063234354520006,"rate":3.7,"distance":901.0,"tag":"중화요리"},{"name":"만래옥","cate_1":"한식","cate_2":"갈비\/삼겹살","cate_3":"한식 음식점업","area":"대치동","address":"서울특별시 강남구 테헤란로88길 22","lon":37.506159733987694,"lat":127.060024507340998,"rate":4.0,"distance":259.0,"tag":"육류,고기"},{"name":"여신김밥","cate_1":"분식","cate_2":"라면김밥분식","cate_3":"분식 및 김밥 전문점","area":"대치동","address":"서울특별시 강남구 선릉로90길 70","lon":37.505487817380001,"lat":127.054864066253998,"rate":4.0,"distance":351.0,"tag":"분식"},{"name":"참나무바베큐","cate_1":"양식","cate_2":"정통양식\/경양식","cate_3":"서양식 음식점업","area":"삼성동","address":"서울특별시 강남구 삼성로91길 30","lon":37.506712994123603,"lat":127.053706248300998,"rate":0.0,"distance":372.0,"tag":"육류,고기"},{"name":"뜸들이다","cate_1":"한식","cate_2":"한식\/백반\/한정식","cate_3":"한식 음식점업","area":"대치동","address":"서울특별시 강남구 삼성로 238","lon":37.498628711149401,"lat":127.061385569604994,"rate":0.0,"distance":1053.0,"tag":"한식"},{"name":"에그드랍","cate_1":"패스트푸드","cate_2":"샌드위치전문점","cate_3":"피자, 햄버거, 샌드위치 및 유사 음식점업","area":"대치동","address":"서울특별시 강남구 삼성로85길 11","lon":37.5045881509052,"lat":127.056164781275996,"rate":5.0,"distance":368.0,"tag":"샌드위치"},{"name":"직화한상스타필드","cate_1":"한식","cate_2":"한식\/백반\/한정식","cate_3":"한식 음식점업","area":"삼성동","address":"서울특별시 강남구 영동대로 513","lon":37.5118203253706,"lat":127.059139102428006,"rate":0.0,"distance":480.0,"tag":"한식"},{"name":"긴자카레","cate_1":"일식\/수산물","cate_2":"음식점-일식","cate_3":"일식 음식점업","area":"대치동","address":"서울특별시 강남구 역삼로 406","lon":37.500605331078603,"lat":127.051645802823003,"rate":4.7,"distance":951.0,"tag":"일식"},{"name":"빈센트","cate_1":"양식","cate_2":"정통양식\/경양식","cate_3":"서양식 음식점업","area":"대치동","address":"서울특별시 강남구 삼성로85길 11","lon":37.5045881509052,"lat":127.056164781275996,"rate":0.0,"distance":368.0,"tag":"음식점"},{"name":"돈그리아","cate_1":"한식","cate_2":"기타고기요리","cate_3":"한식 음식점업","area":"대치동","address":"서울특별시 강남구 선릉로86길 6-5","lon":37.502795691155598,"lat":127.050622816807007,"rate":3.6,"distance":829.0,"tag":"육류,고기"},{"name":"스시한판","cate_1":"일식\/수산물","cate_2":"음식점-초밥전문","cate_3":"일식 음식점업","area":"삼성동","address":"서울특별시 강남구 영동대로 513","lon":37.512939396928893,"lat":127.057100286394004,"rate":1.8,"distance":591.0,"tag":"초밥,롤"},{"name":"제이제이홈","cate_1":"한식","cate_2":"한식\/백반\/한정식","cate_3":"한식 음식점업","area":"대치동","address":"서울특별시 강남구 영동대로 424","lon":37.507492411685398,"lat":127.064452915868003,"rate":3.5,"distance":590.0,"tag":"한식"},{"name":"스시애","cate_1":"일식\/수산물","cate_2":"음식점-초밥전문","cate_3":"일식 음식점업","area":"대치동","address":"서울특별시 강남구 선릉로64길 7","lon":37.497947999846097,"lat":127.052866884829001,"rate":2.6,"distance":1162.0,"tag":"초밥,롤"},{"name":"배가무닭볶음탕","cate_1":"일식\/수산물","cate_2":"음식점-일식","cate_3":"일식 음식점업","area":"대치동","address":"서울특별시 강남구 선릉로86길 30","lon":37.503628282886801,"lat":127.052195693976003,"rate":4.7,"distance":664.0,"tag":"닭요리"},{"name":"소소한식당","cate_1":"한식","cate_2":"한식\/백반\/한정식","cate_3":"한식 음식점업","area":"대치동","address":"서울특별시 강남구 삼성로 319","lon":37.500345888653399,"lat":127.059769413585002,"rate":4.7,"distance":831.0,"tag":"일식집"},{"name":"깐부치킨","cate_1":"닭\/오리요리","cate_2":"후라이드\/양념치킨","cate_3":"치킨 전문점","area":"삼성동","address":"서울특별시 강남구 봉은사로 629","lon":37.5151671240436,"lat":127.064164815064998,"rate":2.6,"distance":1009.0,"tag":"치킨"},{"name":"바오바오","cate_1":"중식","cate_2":"중국음식\/중국집","cate_3":"중식 음식점업","area":"삼성동","address":"서울특별시 강남구 봉은사로 516","lon":37.513209661459598,"lat":127.055965726981,"rate":5.0,"distance":639.0,"tag":"중화요리"},{"name":"삼원가든","cate_1":"한식","cate_2":"기타고기요리","cate_3":"한식 음식점업","area":"삼성동","address":"서울특별시 강남구 봉은사로 620","lon":37.514492967366799,"lat":127.063234354520006,"rate":3.2,"distance":901.0,"tag":"육류,고기"},{"name":"본도시락대치은마점","cate_1":"패스트푸드","cate_2":"도시락전문점","cate_3":"한식 음식점업","area":"대치동","address":"서울특별시 강남구 도곡로 521","lon":37.500012903648098,"lat":127.063223018662995,"rate":0.0,"distance":976.0,"tag":"도시락"},{"name":"마초야","cate_1":"양식","cate_2":"돈가스전문점","cate_3":"서양식 음식점업","area":"대치동","address":"서울특별시 강남구 역삼로64길 18","lon":37.499886526360399,"lat":127.053023352934005,"rate":3.4,"distance":959.0,"tag":"돈까스,우동"},{"name":"강릉집","cate_1":"일식\/수산물","cate_2":"수산물전문음식점-종합","cate_3":"한식 음식점업","area":"대치동","address":"서울특별시 강남구 도곡로63길 23","lon":37.498414742124297,"lat":127.053765738321999,"rate":5.0,"distance":1085.0,"tag":"해물,생선"},{"name":"중앙해장","cate_1":"한식","cate_2":"해장국\/감자탕","cate_3":"한식 음식점업","area":"대치동","address":"서울특별시 강남구 영동대로86길 17","lon":37.508275300998797,"lat":127.065461122209001,"rate":3.9,"distance":683.0,"tag":"해장국"},{"name":"깐부치킨","cate_1":"닭\/오리요리","cate_2":"후라이드\/양념치킨","cate_3":"치킨 전문점","area":"대치동","address":"서울특별시 강남구 삼성로 345","lon":37.502292701046201,"lat":127.058704485682995,"rate":3.0,"distance":601.0,"tag":"치킨"},{"name":"경복궁블랙","cate_1":"한식","cate_2":"한식\/백반\/한정식","cate_3":"한식 음식점업","area":"삼성동","address":"서울특별시 강남구 영동대로 513","lon":37.5118203253706,"lat":127.059139102428006,"rate":4.0,"distance":480.0,"tag":"한정식"},{"name":"마실","cate_1":"한식","cate_2":"족발\/보쌈전문","cate_3":"한식 음식점업","area":"대치동","address":"서울특별시 강남구 선릉로64길 15-11","lon":37.4987519443116,"lat":127.053116847032996,"rate":5.0,"distance":1071.0,"tag":"족발,보쌈"},{"name":"신한국촌","cate_1":"한식","cate_2":"기타고기요리","cate_3":"한식 음식점업","area":"대치동","address":"서울특별시 강남구 영동대로85길 17","lon":37.506871366159693,"lat":127.062266401816998,"rate":1.0,"distance":407.0,"tag":"육류,고기"},{"name":"향로식당","cate_1":"한식","cate_2":"한식\/백반\/한정식","cate_3":"한식 음식점업","area":"대치동","address":"서울특별시 강남구 삼성로84길 29","lon":37.505987830392698,"lat":127.059936178692993,"rate":5.0,"distance":266.0,"tag":"한식"},{"name":"서울덮밥","cate_1":"한식","cate_2":"한식\/백반\/한정식","cate_3":"한식 음식점업","area":"삼성동","address":"서울특별시 강남구 영동대로 513","lon":37.5118203253706,"lat":127.059139102428006,"rate":3.5,"distance":480.0,"tag":"한식"},{"name":"가야한식","cate_1":"한식","cate_2":"한식\/백반\/한정식","cate_3":"한식 음식점업","area":"삼성동","address":"서울특별시 강남구 선릉로 514","lon":37.505595146508803,"lat":127.049150940996,"rate":5.0,"distance":793.0,"tag":"찌개,전골"},{"name":"뽕나무쟁이","cate_1":"한식","cate_2":"족발\/보쌈전문","cate_3":"한식 음식점업","area":"대치동","address":"서울특별시 강남구 역삼로65길 33","lon":37.503346715021507,"lat":127.051916500947996,"rate":4.1,"distance":703.0,"tag":"족발,보쌈"},{"name":"스낵코너","cate_1":"분식","cate_2":"스낵","cate_3":"분식 및 김밥 전문점","area":"삼성동","address":"서울특별시 강남구 봉은사로114길 43","lon":37.513024135924297,"lat":127.066634873474001,"rate":0.0,"distance":985.0,"tag":"분식"},{"name":"수림복국","cate_1":"일식\/수산물","cate_2":"복전문","cate_3":"한식 음식점업","area":"삼성동","address":"서울특별시 강남구 테헤란로77길 11-13","lon":37.506783077782998,"lat":127.053456529979996,"rate":4.3,"distance":392.0,"tag":"복어"},{"name":"한성양갈비구이","cate_1":"한식","cate_2":"갈비\/삼겹살","cate_3":"한식 음식점업","area":"대치동","address":"서울특별시 강남구 삼성로81길 36","lon":37.503917875540203,"lat":127.054601103031999,"rate":4.6,"distance":500.0,"tag":"갈비"},{"name":"죠샌드위치","cate_1":"패스트푸드","cate_2":"샌드위치전문점","cate_3":"피자, 햄버거, 샌드위치 및 유사 음식점업","area":"대치동","address":"서울특별시 강남구 삼성로 345","lon":37.502292701046201,"lat":127.058704485682995,"rate":3.7,"distance":601.0,"tag":"샌드위치"},{"name":"세이로켄마","cate_1":"한식","cate_2":"한식\/백반\/한정식","cate_3":"한식 음식점업","area":"삼성동","address":"서울특별시 강남구 테헤란로81길 48","lon":37.509850239109298,"lat":127.056155082318995,"rate":4.0,"distance":283.0,"tag":"일식"},{"name":"이화수육개장","cate_1":"한식","cate_2":"한식\/백반\/한정식","cate_3":"한식 음식점업","area":"대치동","address":"서울특별시 강남구 테헤란로86길 16","lon":37.506314974996094,"lat":127.059151648115005,"rate":3.2,"distance":192.0,"tag":"국밥"},{"name":"원조감자탕일미집","cate_1":"한식","cate_2":"해장국\/감자탕","cate_3":"한식 음식점업","area":"삼성동","address":"서울특별시 강남구 테헤란로77길 11-8","lon":37.507164382369297,"lat":127.053813657136004,"rate":3.0,"distance":352.0,"tag":"감자탕"},{"name":"얌샘김밥","cate_1":"분식","cate_2":"라면김밥분식","cate_3":"분식 및 김밥 전문점","area":"대치동","address":"서울특별시 강남구 테헤란로104길 12","lon":37.508262084591507,"lat":127.064929676858,"rate":1.3,"distance":636.0,"tag":"분식"},{"name":"바스버거선릉점","cate_1":"패스트푸드","cate_2":"패스트푸드","cate_3":"피자, 햄버거, 샌드위치 및 유사 음식점업","area":"대치동","address":"서울특별시 강남구 삼성로85길 39","lon":37.504230588077199,"lat":127.054269162911993,"rate":3.5,"distance":489.0,"tag":"햄버거"},{"name":"켄마","cate_1":"한식","cate_2":"기타고기요리","cate_3":"한식 음식점업","area":"삼성동","address":"서울특별시 강남구 삼성로108길 18","lon":37.5120269572326,"lat":127.055675215522996,"rate":4.6,"distance":521.0,"tag":"육류,고기"},{"name":"삼성동보쌈","cate_1":"한식","cate_2":"족발\/보쌈전문","cate_3":"한식 음식점업","area":"삼성동","address":"서울특별시 강남구 삼성로111길 7","lon":37.513254479461693,"lat":127.052560371492007,"rate":0.0,"distance":774.0,"tag":"족발,보쌈"},{"name":"꽃보다등심","cate_1":"일식\/수산물","cate_2":"음식점-일식","cate_3":"일식 음식점업","area":"삼성동","address":"서울특별시 강남구 테헤란로77길 23","lon":37.507850383589201,"lat":127.053963349368999,"rate":3.0,"distance":336.0,"tag":"육류,고기"},{"name":"동경","cate_1":"양식","cate_2":"돈가스전문점","cate_3":"서양식 음식점업","area":"삼성동","address":"서울특별시 강남구 영동대로 513","lon":37.5118203253706,"lat":127.059139102428006,"rate":1.2,"distance":480.0,"tag":"일식"},{"name":"온드린","cate_1":"한식","cate_2":"한식\/백반\/한정식","cate_3":"한식 음식점업","area":"삼성동","address":"서울특별시 강남구 테헤란로 517","lon":37.508608381445796,"lat":127.059744963349999,"rate":0.0,"distance":205.0,"tag":"한식"},{"name":"참치그라","cate_1":"일식\/수산물","cate_2":"참치전문점","cate_3":"일식 음식점업","area":"대치동","address":"서울특별시 강남구 선릉로82길 40-3","lon":37.503179943550897,"lat":127.053592501086996,"rate":3.9,"distance":618.0,"tag":"참치회"},{"name":"강정이기가막혀","cate_1":"닭\/오리요리","cate_2":"후라이드\/양념치킨","cate_3":"치킨 전문점","area":"대치동","address":"서울특별시 강남구 선릉로76길 7","lon":37.501529147461497,"lat":127.051113866405004,"rate":1.0,"distance":898.0,"tag":"닭강정"},{"name":"오발탄","cate_1":"한식","cate_2":"한식\/백반\/한정식","cate_3":"한식 음식점업","area":"삼성동","address":"서울특별시 강남구 삼성로 606","lon":37.513666714335102,"lat":127.053403534679006,"rate":4.2,"distance":772.0,"tag":"곱창,막창"},{"name":"송탄부대찌개","cate_1":"한식","cate_2":"부대찌개\/섞어찌개","cate_3":"한식 음식점업","area":"대치동","address":"서울특별시 강남구 선릉로86길 38","lon":37.503794992197598,"lat":127.052759094902001,"rate":3.0,"distance":615.0,"tag":"찌개,전골"},{"name":"온새미로","cate_1":"한식","cate_2":"한식\/백반\/한정식","cate_3":"한식 음식점업","area":"대치동","address":"서울특별시 강남구 삼성로85길 42","lon":37.504622755939501,"lat":127.053732632052998,"rate":4.9,"distance":489.0,"tag":"갈비"},{"name":"이레샌드위치","cate_1":"패스트푸드","cate_2":"패스트푸드","cate_3":"그외 기타 음식점업","area":"삼성동","address":"서울특별시 강남구 영동대로96길 37","lon":37.511663653210597,"lat":127.065509367364996,"rate":0.0,"distance":816.0,"tag":"샌드위치"},{"name":"충무김밥","cate_1":"분식","cate_2":"라면김밥분식","cate_3":"분식 및 김밥 전문점","area":"대치동","address":"서울특별시 강남구 역삼로63길 20","lon":37.502429546081899,"lat":127.052154297857001,"rate":0.0,"distance":762.0,"tag":"분식"},{"name":"신불떡볶이","cate_1":"분식","cate_2":"라면김밥분식","cate_3":"분식 및 김밥 전문점","area":"삼성동","address":"서울특별시 강남구 봉은사로103길 6","lon":37.515003856470202,"lat":127.061757425652999,"rate":5.0,"distance":891.0,"tag":"떡볶이"},{"name":"스시츠카무","cate_1":"일식\/수산물","cate_2":"음식점-일식","cate_3":"일식 음식점업","area":"삼성동","address":"서울특별시 강남구 테헤란로 521","lon":37.509184357946893,"lat":127.060789660533999,"rate":3.4,"distance":317.0,"tag":"초밥,롤"},{"name":"매운국물떡볶이밀방떡","cate_1":"분식","cate_2":"라면김밥분식","cate_3":"분식 및 김밥 전문점","area":"대치동","address":"서울특별시 강남구 선릉로 334","lon":37.499577867777695,"lat":127.051613559421995,"rate":4.0,"distance":1048.0,"tag":"떡볶이"},{"name":"일일향","cate_1":"중식","cate_2":"중국음식\/중국집","cate_3":"중식 음식점업","area":"삼성동","address":"서울특별시 강남구 테헤란로83길 20","lon":37.508789739738894,"lat":127.057627545022996,"rate":3.7,"distance":128.0,"tag":"중화요리"},{"name":"유키즈시","cate_1":"일식\/수산물","cate_2":"음식점-일식","cate_3":"일식 음식점업","area":"대치동","address":"서울특별시 강남구 영동대로86길 17","lon":37.508275300998797,"lat":127.065461122209001,"rate":4.1,"distance":683.0,"tag":"일식집"},{"name":"동래복국","cate_1":"일식\/수산물","cate_2":"복전문","cate_3":"한식 음식점업","area":"대치동","address":"서울특별시 강남구 테헤란로84길 13","lon":37.5063392109859,"lat":127.058800716646999,"rate":3.6,"distance":172.0,"tag":"복어"},{"name":"본죽&비빔밥CAFE","cate_1":"한식","cate_2":"돌솥\/비빕밥전문점","cate_3":"한식 음식점업","area":"대치동","address":"서울특별시 강남구 테헤란로88길 10","lon":37.506839967079998,"lat":127.059450446396994,"rate":3.0,"distance":174.0,"tag":"죽"},{"name":"버닝스톤","cate_1":"양식","cate_2":"스테이크전문점","cate_3":"서양식 음식점업","area":"대치동","address":"서울특별시 강남구 역삼로64길 7","lon":37.500616127008399,"lat":127.052991519258001,"rate":4.8,"distance":888.0,"tag":"스테이크,립"},{"name":"국시랑만두","cate_1":"분식","cate_2":"국수\/만두\/칼국수","cate_3":"분식 및 김밥 전문점","area":"삼성동","address":"서울특별시 강남구 삼성로91길 30","lon":37.506712994123603,"lat":127.053706248300998,"rate":0.0,"distance":372.0,"tag":"국수"},{"name":"매드포갈릭","cate_1":"양식","cate_2":"패밀리레스토랑","cate_3":"서양식 음식점업","area":"삼성동","address":"서울특별시 강남구 영동대로 520","lon":37.513629176185901,"lat":127.061118558877993,"rate":4.1,"distance":728.0,"tag":"패밀리레스토랑"},{"name":"연타발","cate_1":"한식","cate_2":"곱창\/양구이전문","cate_3":"한식 음식점업","area":"대치동","address":"서울특별시 강남구 테헤란로 428","lon":37.505679058823503,"lat":127.053990750251998,"rate":3.5,"distance":398.0,"tag":"곱창,막창"},{"name":"족발의달인","cate_1":"한식","cate_2":"족발\/보쌈전문","cate_3":"한식 음식점업","area":"대치동","address":"서울특별시 강남구 도곡로 516","lon":37.499172940488002,"lat":127.062973394067996,"rate":1.0,"distance":1048.0,"tag":"족발,보쌈"},{"name":"번패티번","cate_1":"패스트푸드","cate_2":"패스트푸드","cate_3":"그외 기타 음식점업","area":"삼성동","address":"서울특별시 강남구 테헤란로 517","lon":37.508608381445796,"lat":127.059744963349999,"rate":2.5,"distance":205.0,"tag":"햄버거"},{"name":"뽀모도로스파게티","cate_1":"양식","cate_2":"스파게티전문점","cate_3":"서양식 음식점업","area":"삼성동","address":"서울특별시 강남구 영동대로 513","lon":37.5118203253706,"lat":127.059139102428006,"rate":2.0,"distance":480.0,"tag":"이탈리안"},{"name":"간코블랙","cate_1":"일식\/수산물","cate_2":"음식점-일식","cate_3":"일식 음식점업","area":"삼성동","address":"서울특별시 강남구 테헤란로 517","lon":37.508608381445796,"lat":127.059744963349999,"rate":3.0,"distance":205.0,"tag":"돈까스,우동"},{"name":"청화당","cate_1":"중식","cate_2":"중국음식\/중국집","cate_3":"중식 음식점업","area":"대치동","address":"서울특별시 강남구 테헤란로78길 16","lon":37.505049963096702,"lat":127.055322000640004,"rate":3.0,"distance":360.0,"tag":"중화요리"},{"name":"교대밀밭","cate_1":"분식","cate_2":"국수\/만두\/칼국수","cate_3":"분식 및 김밥 전문점","area":"대치동","address":"서울특별시 강남구 영동대로85길 9","lon":37.507083435228601,"lat":127.062874525422998,"rate":3.7,"distance":455.0,"tag":"국수"},{"name":"정통원조한방삼계탕찜닭","cate_1":"닭\/오리요리","cate_2":"삼계탕전문","cate_3":"한식 음식점업","area":"대치동","address":"서울특별시 강남구 테헤란로68길 25","lon":37.503633362632499,"lat":127.052828997841004,"rate":2.6,"distance":623.0,"tag":"삼계탕"},{"name":"푸라닭치킨","cate_1":"닭\/오리요리","cate_2":"후라이드\/양념치킨","cate_3":"치킨 전문점","area":"대치동","address":"서울특별시 강남구 역삼로 433","lon":37.501843392201103,"lat":127.054344513616002,"rate":3.1,"distance":712.0,"tag":"치킨"},{"name":"석우동","cate_1":"분식","cate_2":"우동전문점","cate_3":"분식 및 김밥 전문점","area":"대치동","address":"서울특별시 강남구 삼성로85길 11","lon":37.5045881509052,"lat":127.056164781275996,"rate":0.0,"distance":368.0,"tag":"음식점"},{"name":"닭스","cate_1":"닭\/오리요리","cate_2":"후라이드\/양념치킨","cate_3":"치킨 전문점","area":"대치동","address":"서울특별시 강남구 테헤란로64길 9","lon":37.504488034784302,"lat":127.051540139422002,"rate":0.0,"distance":652.0,"tag":"치킨"},{"name":"죠스떡볶이","cate_1":"분식","cate_2":"라면김밥분식","cate_3":"분식 및 김밥 전문점","area":"대치동","address":"서울특별시 강남구 도곡로 510","lon":37.499013314784896,"lat":127.062161107920005,"rate":2.6,"distance":1035.0,"tag":"떡볶이"},{"name":"책갈피","cate_1":"패스트푸드","cate_2":"패스트푸드","cate_3":"그외 기타 음식점업","area":"대치동","address":"서울특별시 강남구 삼성로81길 6","lon":37.504766469623,"lat":127.057056051551001,"rate":0.0,"distance":326.0,"tag":"패스트푸드"},{"name":"신촌","cate_1":"분식","cate_2":"라면김밥분식","cate_3":"분식 및 김밥 전문점","area":"삼성동","address":"서울특별시 강남구 봉은사로82길 25","lon":37.5116101622976,"lat":127.055386371622006,"rate":0.0,"distance":488.0,"tag":"떡볶이"},{"name":"남원추어탕","cate_1":"한식","cate_2":"한식\/백반\/한정식","cate_3":"한식 음식점업","area":"대치동","address":"서울특별시 강남구 도곡로 440","lon":37.497876881986095,"lat":127.058624205857996,"rate":0.0,"distance":1089.0,"tag":"추어"},{"name":"쌀통닭","cate_1":"닭\/오리요리","cate_2":"후라이드\/양념치킨","cate_3":"치킨 전문점","area":"대치동","address":"서울특별시 강남구 도곡로99길 16","lon":37.501836958158698,"lat":127.065993770918993,"rate":4.0,"distance":972.0,"tag":"치킨"},{"name":"신차이","cate_1":"중식","cate_2":"중국음식\/중국집","cate_3":"중식 음식점업","area":"삼성동","address":"서울특별시 강남구 테헤란로 517","lon":37.508608381445796,"lat":127.059744963349999,"rate":5.0,"distance":205.0,"tag":"중화요리"},{"name":"구구족","cate_1":"한식","cate_2":"한식\/백반\/한정식","cate_3":"한식 음식점업","area":"대치동","address":"서울특별시 강남구 도곡로 510","lon":37.499013314784896,"lat":127.062161107920005,"rate":4.5,"distance":1035.0,"tag":"족발,보쌈"},{"name":"닐리파스타","cate_1":"양식","cate_2":"정통양식\/경양식","cate_3":"서양식 음식점업","area":"대치동","address":"서울특별시 강남구 도곡로63길 23","lon":37.498414742124297,"lat":127.053765738321999,"rate":3.6,"distance":1085.0,"tag":"이탈리안"},{"name":"도미노피자","cate_1":"패스트푸드","cate_2":"피자전문","cate_3":"피자, 햄버거, 샌드위치 및 유사 음식점업","area":"삼성동","address":"서울특별시 강남구 봉은사로 451","lon":37.512036394874798,"lat":127.048990051903004,"rate":1.5,"distance":915.0,"tag":"피자"},{"name":"국고집","cate_1":"한식","cate_2":"기타고기요리","cate_3":"한식 음식점업","area":"대치동","address":"서울특별시 강남구 선릉로86길 30","lon":37.503628282886801,"lat":127.052195693976003,"rate":3.0,"distance":664.0,"tag":"육류,고기"},{"name":"제주생선구이올래밥상삼성","cate_1":"일식\/수산물","cate_2":"갈치\/생선구이","cate_3":"한식 음식점업","area":"삼성동","address":"서울특별시 강남구 봉은사로 466","lon":37.511959764222702,"lat":127.050665111224006,"rate":5.0,"distance":789.0,"tag":"해물,생선"},{"name":"파리스치킨","cate_1":"닭\/오리요리","cate_2":"후라이드\/양념치킨","cate_3":"치킨 전문점","area":"삼성동","address":"서울특별시 강남구 삼성로103길 23","lon":37.509868035767496,"lat":127.052750221078,"rate":0.0,"distance":506.0,"tag":"치킨"},{"name":"종로김밥","cate_1":"분식","cate_2":"라면김밥분식","cate_3":"분식 및 김밥 전문점","area":"삼성동","address":"서울특별시 강남구 테헤란로107길 11","lon":37.510425479926496,"lat":127.065038423418997,"rate":2.3,"distance":712.0,"tag":"분식"},{"name":"오복냉면","cate_1":"한식","cate_2":"냉면집","cate_3":"한식 음식점업","area":"대치동","address":"서울특별시 강남구 선릉로76길 21","lon":37.501843918916308,"lat":127.052161701109995,"rate":0.0,"distance":813.0,"tag":"냉면"},{"name":"나주본가설렁탕","cate_1":"한식","cate_2":"설렁탕집","cate_3":"한식 음식점업","area":"삼성동","address":"서울특별시 강남구 삼성로103길 6","lon":37.510508952809097,"lat":127.054020285185004,"rate":1.0,"distance":458.0,"tag":"설렁탕"},{"name":"보영만두","cate_1":"분식","cate_2":"국수\/만두\/칼국수","cate_3":"분식 및 김밥 전문점","area":"대치동","address":"서울특별시 강남구 삼성로85길 42","lon":37.504622755939501,"lat":127.053732632052998,"rate":4.0,"distance":489.0,"tag":"분식"},{"name":"강정희간장새우","cate_1":"일식\/수산물","cate_2":"음식점-일식","cate_3":"일식 음식점업","area":"대치동","address":"서울특별시 강남구 역삼로63길 22","lon":37.502573337475198,"lat":127.052107240138,"rate":4.5,"distance":753.0,"tag":"해물,생선"},{"name":"담뿍화로된장","cate_1":"한식","cate_2":"한식\/백반\/한정식","cate_3":"한식 음식점업","area":"대치동","address":"서울특별시 강남구 테헤란로78길 14-15","lon":37.504862259539294,"lat":127.054385608291,"rate":4.0,"distance":430.0,"tag":"찌개,전골"},{"name":"판동면옥","cate_1":"한식","cate_2":"냉면집","cate_3":"한식 음식점업","area":"대치동","address":"서울특별시 강남구 역삼로77길 5","lon":37.502841271353098,"lat":127.056311182532994,"rate":4.0,"distance":549.0,"tag":"냉면"},{"name":"메밀연가","cate_1":"분식","cate_2":"우동전문점","cate_3":"분식 및 김밥 전문점","area":"대치동","address":"서울특별시 강남구 선릉로62길 37","lon":37.498211271108602,"lat":127.055362921043994,"rate":2.9,"distance":1070.0,"tag":"국수"},{"name":"행복한밥상","cate_1":"한식","cate_2":"한식\/백반\/한정식","cate_3":"한식 음식점업","area":"대치동","address":"서울특별시 강남구 선릉로64길 12","lon":37.497788998582699,"lat":127.053264717245995,"rate":3.0,"distance":1166.0,"tag":"한식"},{"name":"한와담","cate_1":"한식","cate_2":"한식\/백반\/한정식","cate_3":"한식 음식점업","area":"대치동","address":"서울특별시 강남구 테헤란로 440","lon":37.505804183147696,"lat":127.056115540456005,"rate":2.5,"distance":251.0,"tag":"육류,고기"},{"name":"스시로","cate_1":"일식\/수산물","cate_2":"음식점-초밥전문","cate_3":"일식 음식점업","area":"삼성동","address":"서울특별시 강남구 테헤란로87길 58","lon":37.5120056433882,"lat":127.057519244112001,"rate":3.7,"distance":485.0,"tag":"일식"},{"name":"쿠모식당","cate_1":"한식","cate_2":"한식\/백반\/한정식","cate_3":"한식 음식점업","area":"삼성동","address":"서울특별시 강남구 영동대로 513","lon":37.5118203253706,"lat":127.059139102428006,"rate":0.0,"distance":480.0,"tag":"돈까스,우동"},{"name":"서울스낵","cate_1":"분식","cate_2":"라면김밥분식","cate_3":"분식 및 김밥 전문점","area":"삼성동","address":"서울특별시 강남구 영동대로 513","lon":37.5118203253706,"lat":127.059139102428006,"rate":0.0,"distance":480.0,"tag":"분식"},{"name":"자매분식","cate_1":"분식","cate_2":"라면김밥분식","cate_3":"분식 및 김밥 전문점","area":"삼성동","address":"서울특별시 강남구 삼성로103길 12","lon":37.510386662713003,"lat":127.053377092172994,"rate":5.0,"distance":492.0,"tag":"분식"},{"name":"이베리코","cate_1":"한식","cate_2":"한식\/백반\/한정식","cate_3":"한식 음식점업","area":"삼성동","address":"서울특별시 강남구 영동대로106길 11","lon":37.513573477254496,"lat":127.062046812117998,"rate":3.4,"distance":760.0,"tag":"육류,고기"},{"name":"스시노스시","cate_1":"일식\/수산물","cate_2":"음식점-초밥전문","cate_3":"일식 음식점업","area":"대치동","address":"서울특별시 강남구 역삼로 413","lon":37.501186305226803,"lat":127.052181323903994,"rate":4.2,"distance":871.0,"tag":"초밥,롤"},{"name":"코벤트가든","cate_1":"양식","cate_2":"정통양식\/경양식","cate_3":"서양식 음식점업","area":"대치동","address":"서울특별시 강남구 선릉로 410","lon":37.501561460722897,"lat":127.050649754429998,"rate":3.2,"distance":923.0,"tag":"이탈리안"},{"name":"고운님","cate_1":"한식","cate_2":"한식\/백반\/한정식","cate_3":"한식 음식점업","area":"삼성동","address":"서울특별시 강남구 영동대로 513","lon":37.5118203253706,"lat":127.059139102428006,"rate":3.9,"distance":480.0,"tag":"한정식"},{"name":"노포식당","cate_1":"한식","cate_2":"곱창\/양구이전문","cate_3":"한식 음식점업","area":"대치동","address":"서울특별시 강남구 선릉로86길 24","lon":37.503461934084093,"lat":127.051677531484003,"rate":3.8,"distance":710.0,"tag":"곱창,막창"},{"name":"차이나팩토리익스프레스","cate_1":"중식","cate_2":"중국음식\/중국집","cate_3":"중식 음식점업","area":"삼성동","address":"서울특별시 강남구 영동대로 513","lon":37.5118203253706,"lat":127.059139102428006,"rate":2.5,"distance":480.0,"tag":"중화요리"},{"name":"불이아","cate_1":"중식","cate_2":"중국음식\/중국집","cate_3":"중식 음식점업","area":"삼성동","address":"서울특별시 강남구 테헤란로87길 55","lon":37.511174409028797,"lat":127.057235602852998,"rate":4.5,"distance":395.0,"tag":"중식"},{"name":"명동피자","cate_1":"패스트푸드","cate_2":"피자전문","cate_3":"피자, 햄버거, 샌드위치 및 유사 음식점업","area":"대치동","address":"서울특별시 강남구 역삼로63길 6","lon":37.501577076726896,"lat":127.052594848035,"rate":3.1,"distance":814.0,"tag":"피자"},{"name":"거자필반","cate_1":"일식\/수산물","cate_2":"해물찜\/탕전문","cate_3":"한식 음식점업","area":"대치동","address":"서울특별시 강남구 테헤란로108길 8","lon":37.508826591019698,"lat":127.065669157081999,"rate":4.0,"distance":710.0,"tag":"곰탕"},{"name":"마왕족발","cate_1":"한식","cate_2":"족발\/보쌈전문","cate_3":"한식 음식점업","area":"대치동","address":"서울특별시 강남구 도곡로 516","lon":37.499172940488002,"lat":127.062973394067996,"rate":3.3,"distance":1048.0,"tag":"족발,보쌈"},{"name":"가츠오","cate_1":"양식","cate_2":"돈가스전문점","cate_3":"서양식 음식점업","area":"대치동","address":"서울특별시 강남구 도곡로63길 31","lon":37.498988823555202,"lat":127.053441829766001,"rate":4.7,"distance":1035.0,"tag":"돈까스,우동"},{"name":"이태리부대찌개","cate_1":"한식","cate_2":"부대찌개\/섞어찌개","cate_3":"한식 음식점업","area":"대치동","address":"서울특별시 강남구 영동대로86길 28","lon":37.508247042918093,"lat":127.066445518617996,"rate":4.2,"distance":769.0,"tag":"찌개,전골"},{"name":"서울밥상","cate_1":"분식","cate_2":"라면김밥분식","cate_3":"분식 및 김밥 전문점","area":"삼성동","address":"서울특별시 강남구 봉은사로 608-10","lon":37.513659171465697,"lat":127.061491468062997,"rate":3.0,"distance":745.0,"tag":"육류,고기"},{"name":"남포동수제비","cate_1":"분식","cate_2":"라면김밥분식","cate_3":"분식 및 김밥 전문점","area":"삼성동","address":"서울특별시 강남구 영동대로 513","lon":37.5118203253706,"lat":127.059139102428006,"rate":2.0,"distance":480.0,"tag":"수제비"},{"name":"싸다김밥","cate_1":"분식","cate_2":"라면김밥분식","cate_3":"분식 및 김밥 전문점","area":"대치동","address":"서울특별시 강남구 도곡로 440","lon":37.497876881986095,"lat":127.058624205857996,"rate":1.5,"distance":1089.0,"tag":"분식"},{"name":"마미치킨","cate_1":"닭\/오리요리","cate_2":"후라이드\/양념치킨","cate_3":"치킨 전문점","area":"대치동","address":"서울특별시 강남구 삼성로 212","lon":37.499610581976597,"lat":127.065897098053,"rate":3.7,"distance":1146.0,"tag":"치킨"},{"name":"왕대박숯불구이","cate_1":"한식","cate_2":"갈비\/삼겹살","cate_3":"한식 음식점업","area":"대치동","address":"서울특별시 강남구 영동대로85길 20-7","lon":37.507370698221898,"lat":127.061604134107995,"rate":0.0,"distance":340.0,"tag":"육류,고기"},{"name":"즉석떡볶이88","cate_1":"분식","cate_2":"떡볶이전문","cate_3":"분식 및 김밥 전문점","area":"삼성동","address":"서울특별시 강남구 봉은사로 466","lon":37.511959764222702,"lat":127.050665111224006,"rate":4.6,"distance":789.0,"tag":"떡볶이"},{"name":"그린파이브","cate_1":"양식","cate_2":"기타전문서양음식점","cate_3":"서양식 음식점업","area":"삼성동","address":"서울특별시 강남구 테헤란로 517","lon":37.508608381445796,"lat":127.059744963349999,"rate":0.0,"distance":205.0,"tag":"초밥,롤"},{"name":"만다린","cate_1":"중식","cate_2":"중국음식\/중국집","cate_3":"중식 음식점업","area":"대치동","address":"서울특별시 강남구 삼성로81길 34","lon":37.503983024563198,"lat":127.054860416091003,"rate":4.5,"distance":481.0,"tag":"중화요리"},{"name":"써니쿡","cate_1":"분식","cate_2":"라면김밥분식","cate_3":"분식 및 김밥 전문점","area":"대치동","address":"서울특별시 강남구 역삼로78길 15","lon":37.501560565068402,"lat":127.057288637623003,"rate":0.0,"distance":678.0,"tag":"도시락"},{"name":"원조감자탕일미집","cate_1":"한식","cate_2":"해장국\/감자탕","cate_3":"한식 음식점업","area":"대치동","address":"서울특별시 강남구 선릉로86길 48","lon":37.504108209332699,"lat":127.053614714041998,"rate":3.0,"distance":537.0,"tag":"감자탕"},{"name":"멍텅구리꼼장어","cate_1":"일식\/수산물","cate_2":"곰장어전문","cate_3":"한식 음식점업","area":"삼성동","address":"서울특별시 강남구 봉은사로 445","lon":37.511851465595903,"lat":127.048404206517006,"rate":3.8,"distance":949.0,"tag":"장어"},{"name":"찜닭에꽂힌닭집애","cate_1":"한식","cate_2":"한식\/백반\/한정식","cate_3":"한식 음식점업","area":"대치동","address":"서울특별시 강남구 선릉로 334","lon":37.499577867777695,"lat":127.051613559421995,"rate":0.0,"distance":1048.0,"tag":"한식"},{"name":"빨강떡볶이","cate_1":"분식","cate_2":"떡볶이전문","cate_3":"분식 및 김밥 전문점","area":"삼성동","address":"서울특별시 강남구 봉은사로67길 30","lon":37.513695703944698,"lat":127.048041440985003,"rate":2.7,"distance":1090.0,"tag":"떡볶이"},{"name":"고피자","cate_1":"한식","cate_2":"한식\/백반\/한정식","cate_3":"한식 음식점업","area":"삼성동","address":"서울특별시 강남구 봉은사로63길 14","lon":37.512282177294303,"lat":127.047063987513994,"rate":5.0,"distance":1075.0,"tag":"피자"},{"name":"버거킹","cate_1":"패스트푸드","cate_2":"패스트푸드","cate_3":"그외 기타 음식점업","area":"삼성동","address":"서울특별시 강남구 봉은사로 502","lon":37.512877219495103,"lat":127.053832032990996,"rate":4.0,"distance":677.0,"tag":"패스트푸드"},{"name":"초원족발","cate_1":"한식","cate_2":"족발\/보쌈전문","cate_3":"한식 음식점업","area":"삼성동","address":"서울특별시 강남구 테헤란로81길 22","lon":37.508495653930495,"lat":127.056907345683996,"rate":2.0,"distance":121.0,"tag":"족발,보쌈"},{"name":"소곱창과순대국","cate_1":"한식","cate_2":"한식\/백반\/한정식","cate_3":"한식 음식점업","area":"삼성동","address":"서울특별시 강남구 삼성로 517","lon":37.5080786526444,"lat":127.055464807234998,"rate":5.0,"distance":208.0,"tag":"곱창,막창"},{"name":"단골집","cate_1":"한식","cate_2":"해장국\/감자탕","cate_3":"한식 음식점업","area":"삼성동","address":"서울특별시 강남구 선릉로112길 36","lon":37.511791550570003,"lat":127.046561213686999,"rate":5.0,"distance":1090.0,"tag":"해장국"},{"name":"바토스","cate_1":"양식","cate_2":"기타전문서양음식점","cate_3":"서양식 음식점업","area":"삼성동","address":"서울특별시 강남구 테헤란로 521","lon":37.509184357946893,"lat":127.060789660533999,"rate":4.2,"distance":317.0,"tag":"멕시칸,브라질"},{"name":"농민백암","cate_1":"한식","cate_2":"한식\/백반\/한정식","cate_3":"한식 음식점업","area":"대치동","address":"서울특별시 강남구 선릉로86길 40-3","lon":37.503789246559997,"lat":127.053166333549996,"rate":4.3,"distance":590.0,"tag":"순대"},{"name":"날마다막창","cate_1":"한식","cate_2":"곱창\/양구이전문","cate_3":"한식 음식점업","area":"대치동","address":"서울특별시 강남구 역삼로63길 17","lon":37.502256910768203,"lat":127.051975521282998,"rate":1.0,"distance":787.0,"tag":"곱창,막창"},{"name":"면전","cate_1":"한식","cate_2":"한식\/백반\/한정식","cate_3":"한식 음식점업","area":"대치동","address":"서울특별시 강남구 삼성로85길 33","lon":37.504279981146098,"lat":127.054811431542007,"rate":0.0,"distance":456.0,"tag":"국수"},{"name":"엄마의부엌","cate_1":"한식","cate_2":"한식\/백반\/한정식","cate_3":"한식 음식점업","area":"삼성동","address":"서울특별시 강남구 삼성로 571","lon":37.512340484920799,"lat":127.053194055546001,"rate":0.0,"distance":659.0,"tag":"한식"},{"name":"유채라멘","cate_1":"분식","cate_2":"라면김밥분식","cate_3":"분식 및 김밥 전문점","area":"대치동","address":"서울특별시 강남구 삼성로63길 25","lon":37.499386450293002,"lat":127.058096327075006,"rate":4.6,"distance":919.0,"tag":"일본식라면"},{"name":"팔공뭉티기","cate_1":"한식","cate_2":"한식\/백반\/한정식","cate_3":"한식 음식점업","area":"삼성동","address":"서울특별시 강남구 삼성로103길 12","lon":37.510386662713003,"lat":127.053377092172994,"rate":0.0,"distance":492.0,"tag":"육류,고기"},{"name":"UFO버거","cate_1":"패스트푸드","cate_2":"패스트푸드","cate_3":"그외 기타 음식점업","area":"대치동","address":"서울특별시 강남구 도곡로 510","lon":37.499013314784896,"lat":127.062161107920005,"rate":2.5,"distance":1035.0,"tag":"햄버거"},{"name":"700곳간","cate_1":"일식\/수산물","cate_2":"음식점-일식","cate_3":"일식 음식점업","area":"대치동","address":"서울특별시 강남구 삼성로85길 19","lon":37.504710670714402,"lat":127.055710826446997,"rate":5.0,"distance":373.0,"tag":"찌개,전골"},{"name":"쉐이크쉑","cate_1":"한식","cate_2":"한식\/백반\/한정식","cate_3":"한식 음식점업","area":"삼성동","address":"서울특별시 강남구 영동대로 513","lon":37.5118203253706,"lat":127.059139102428006,"rate":4.0,"distance":480.0,"tag":"햄버거"},{"name":"배떡","cate_1":"분식","cate_2":"라면김밥분식","cate_3":"분식 및 김밥 전문점","area":"대치동","address":"서울특별시 강남구 삼성로 212","lon":37.499610581976597,"lat":127.065897098053,"rate":0.0,"distance":1146.0,"tag":"분식"},{"name":"배떡","cate_1":"분식","cate_2":"라면김밥분식","cate_3":"분식 및 김밥 전문점","area":"삼성동","address":"서울특별시 강남구 삼성로95길 15","lon":37.507737423700597,"lat":127.054485070126006,"rate":0.0,"distance":289.0,"tag":"한식"},{"name":"백제한방삼계탕","cate_1":"한식","cate_2":"한식\/백반\/한정식","cate_3":"한식 음식점업","area":"대치동","address":"서울특별시 강남구 삼성로81길 43","lon":37.503563692782201,"lat":127.054254954970006,"rate":5.0,"distance":549.0,"tag":"삼계탕"},{"name":"맛자랑","cate_1":"한식","cate_2":"한식\/백반\/한정식","cate_3":"한식 음식점업","area":"삼성동","address":"서울특별시 강남구 선릉로 524","lon":37.5066430806136,"lat":127.048368528927,"rate":5.0,"distance":836.0,"tag":"한식"},{"name":"보드람죽","cate_1":"한식","cate_2":"한식\/백반\/한정식","cate_3":"한식 음식점업","area":"대치동","address":"서울특별시 강남구 선릉로64길 28","lon":37.498231786628899,"lat":127.054548390744998,"rate":0.0,"distance":1085.0,"tag":"죽"},{"name":"우아한강남키친","cate_1":"한식","cate_2":"한식\/백반\/한정식","cate_3":"한식 음식점업","area":"대치동","address":"서울특별시 강남구 삼성로81길 43","lon":37.503563692782201,"lat":127.054254954970006,"rate":0.0,"distance":549.0,"tag":"도시락"},{"name":"명품유쾌","cate_1":"한식","cate_2":"한식\/백반\/한정식","cate_3":"한식 음식점업","area":"대치동","address":"서울특별시 강남구 선릉로 334","lon":37.499577867777695,"lat":127.051613559421995,"rate":5.0,"distance":1048.0,"tag":"육류,고기"},{"name":"오늘통닭","cate_1":"닭\/오리요리","cate_2":"후라이드\/양념치킨","cate_3":"치킨 전문점","area":"삼성동","address":"서울특별시 강남구 테헤란로63길 12","lon":37.5061304399553,"lat":127.050727624277002,"rate":5.0,"distance":643.0,"tag":"치킨"},{"name":"스시한판","cate_1":"일식\/수산물","cate_2":"음식점-초밥전문","cate_3":"일식 음식점업","area":"대치동","address":"서울특별시 강남구 삼성로85길 11","lon":37.5045881509052,"lat":127.056164781275996,"rate":1.8,"distance":368.0,"tag":"초밥,롤"},{"name":"오레노카츠","cate_1":"일식\/수산물","cate_2":"음식점-일식","cate_3":"일식 음식점업","area":"대치동","address":"서울특별시 강남구 도곡로63길 28","lon":37.498830726116495,"lat":127.053952749356995,"rate":5.0,"distance":1036.0,"tag":"돈까스,우동"},{"name":"미나다","cate_1":"일식\/수산물","cate_2":"음식점-일식","cate_3":"일식 음식점업","area":"삼성동","address":"서울특별시 강남구 선릉로 514","lon":37.505595146508803,"lat":127.049150940996,"rate":1.0,"distance":793.0,"tag":"한식"},{"name":"송파만두","cate_1":"한식","cate_2":"한식\/백반\/한정식","cate_3":"한식 음식점업","area":"대치동","address":"서울특별시 강남구 삼성로81길 43","lon":37.503563692782201,"lat":127.054254954970006,"rate":4.2,"distance":549.0,"tag":"분식"},{"name":"오한수우육면가","cate_1":"한식","cate_2":"한식\/백반\/한정식","cate_3":"한식 음식점업","area":"삼성동","address":"서울특별시 강남구 선릉로 514","lon":37.505595146508803,"lat":127.049150940996,"rate":0.0,"distance":793.0,"tag":"중화요리"},{"name":"칠리향마라탕","cate_1":"중식","cate_2":"중국음식\/중국집","cate_3":"중식 음식점업","area":"대치동","address":"서울특별시 강남구 선릉로86길 30","lon":37.503628282886801,"lat":127.052195693976003,"rate":4.7,"distance":664.0,"tag":"중화요리"},{"name":"블랙바스테이크하우스","cate_1":"한식","cate_2":"한식\/백반\/한정식","cate_3":"한식 음식점업","area":"대치동","address":"서울특별시 강남구 테헤란로 610","lon":37.508817549961698,"lat":127.064526865103005,"rate":0.0,"distance":611.0,"tag":"스테이크,립"},{"name":"국대떡볶이","cate_1":"분식","cate_2":"라면김밥분식","cate_3":"분식 및 김밥 전문점","area":"대치동","address":"서울특별시 강남구 삼성로 231","lon":37.497814425079397,"lat":127.060966009330002,"rate":2.7,"distance":1129.0,"tag":"떡볶이"},{"name":"오로라김밥","cate_1":"분식","cate_2":"라면김밥분식","cate_3":"분식 및 김밥 전문점","area":"대치동","address":"서울특별시 강남구 도곡로77길 6","lon":37.498760730883902,"lat":127.058726204463994,"rate":5.0,"distance":992.0,"tag":"분식"},{"name":"신식신","cate_1":"중식","cate_2":"중국음식\/중국집","cate_3":"중식 음식점업","area":"대치동","address":"서울특별시 강남구 삼성로85길 32","lon":37.504702077282403,"lat":127.054636455438995,"rate":3.0,"distance":428.0,"tag":"중화요리"},{"name":"지니김밥","cate_1":"분식","cate_2":"라면김밥분식","cate_3":"분식 및 김밥 전문점","area":"대치동","address":"서울특별시 강남구 도곡로73길 13","lon":37.498737561395899,"lat":127.056950917896998,"rate":0.0,"distance":993.0,"tag":"분식"},{"name":"다도","cate_1":"일식\/수산물","cate_2":"음식점-일식","cate_3":"일식 음식점업","area":"삼성동","address":"서울특별시 강남구 테헤란로77길 11-8","lon":37.507164382369297,"lat":127.053813657136004,"rate":5.0,"distance":352.0,"tag":"회"},{"name":"하랑","cate_1":"일식\/수산물","cate_2":"음식점-일식","cate_3":"일식 음식점업","area":"삼성동","address":"서울특별시 강남구 선릉로112길 38","lon":37.511855713383802,"lat":127.046696134052993,"rate":5.0,"distance":1082.0,"tag":"돈까스,우동"},{"name":"부산아지매국밥","cate_1":"한식","cate_2":"한식\/백반\/한정식","cate_3":"한식 음식점업","area":"대치동","address":"서울특별시 강남구 삼성로81길 36","lon":37.503917875540203,"lat":127.054601103031999,"rate":3.6,"distance":500.0,"tag":"국밥"},{"name":"꼬육꼬밥","cate_1":"한식","cate_2":"한식\/백반\/한정식","cate_3":"한식 음식점업","area":"대치동","address":"서울특별시 강남구 도곡로 516","lon":37.499172940488002,"lat":127.062973394067996,"rate":0.0,"distance":1048.0,"tag":"한식"},{"name":"옐로트렁크","cate_1":"양식","cate_2":"정통양식\/경양식","cate_3":"서양식 음식점업","area":"대치동","address":"서울특별시 강남구 테헤란로86길 10","lon":37.506682929631197,"lat":127.058966060412004,"rate":0.0,"distance":151.0,"tag":"햄버거"},{"name":"장수식당","cate_1":"한식","cate_2":"한식\/백반\/한정식","cate_3":"한식 음식점업","area":"대치동","address":"서울특별시 강남구 역삼로 455","lon":37.502738303307801,"lat":127.056957149265003,"rate":0.0,"distance":550.0,"tag":"한식"},{"name":"뒤끝","cate_1":"한식","cate_2":"한식\/백반\/한정식","cate_3":"한식 음식점업","area":"대치동","address":"서울특별시 강남구 테헤란로104길 8","lon":37.508585358332702,"lat":127.064789913490998,"rate":5.0,"distance":629.0,"tag":"한식"},{"name":"식껍","cate_1":"한식","cate_2":"기타고기요리","cate_3":"한식 음식점업","area":"삼성동","address":"서울특별시 강남구 테헤란로107길 11","lon":37.510425479926496,"lat":127.065038423418997,"rate":0.0,"distance":712.0,"tag":"육류,고기"},{"name":"뿔한우","cate_1":"양식","cate_2":"정통양식\/경양식","cate_3":"서양식 음식점업","area":"삼성동","address":"서울특별시 강남구 봉은사로 420","lon":37.5105271905108,"lat":127.046204027792996,"rate":1.8,"distance":1069.0,"tag":"육류,고기"},{"name":"밀본","cate_1":"한식","cate_2":"한식\/백반\/한정식","cate_3":"한식 음식점업","area":"대치동","address":"서울특별시 강남구 테헤란로84길 25","lon":37.505540144144398,"lat":127.059161372201004,"rate":0.0,"distance":265.0,"tag":"한식"},{"name":"투도우","cate_1":"한식","cate_2":"한식\/백반\/한정식","cate_3":"한식 음식점업","area":"삼성동","address":"서울특별시 강남구 봉은사로 449","lon":37.511980697795401,"lat":127.048787153389995,"rate":0.0,"distance":927.0,"tag":"양식"},{"name":"열도미행파르나스몰점","cate_1":"일식\/수산물","cate_2":"음식점-일식","cate_3":"일식 음식점업","area":"삼성동","address":"서울특별시 강남구 테헤란로 521","lon":37.509184357946893,"lat":127.060789660533999,"rate":1.0,"distance":317.0,"tag":"일식"},{"name":"수미돈","cate_1":"한식","cate_2":"한식\/백반\/한정식","cate_3":"한식 음식점업","area":"삼성동","address":"서울특별시 강남구 삼성로103길 12","lon":37.510386662713003,"lat":127.053377092172994,"rate":0.0,"distance":492.0,"tag":"육류,고기"},{"name":"긴자료코","cate_1":"한식","cate_2":"한식\/백반\/한정식","cate_3":"한식 음식점업","area":"대치동","address":"서울특별시 강남구 삼성로 327","lon":37.500884128273093,"lat":127.059468611259007,"rate":5.0,"distance":767.0,"tag":"돈까스,우동"},{"name":"맛자랑","cate_1":"한식","cate_2":"한식\/백반\/한정식","cate_3":"한식 음식점업","area":"대치동","address":"서울특별시 강남구 선릉로 326","lon":37.4987612570104,"lat":127.052031026147006,"rate":4.8,"distance":1110.0,"tag":"한정식"},{"name":"트윈쿡","cate_1":"분식","cate_2":"스낵","cate_3":"분식 및 김밥 전문점","area":"삼성동","address":"서울특별시 강남구 영동대로 513","lon":37.5118203253706,"lat":127.059139102428006,"rate":1.2,"distance":480.0,"tag":"분식"},{"name":"마부육전","cate_1":"한식","cate_2":"한식\/백반\/한정식","cate_3":"한식 음식점업","area":"대치동","address":"서울특별시 강남구 테헤란로86길 17","lon":37.506291188176803,"lat":127.059559126487002,"rate":3.0,"distance":219.0,"tag":"한식"},{"name":"브레덴버거","cate_1":"패스트푸드","cate_2":"패스트푸드","cate_3":"그외 기타 음식점업","area":"대치동","address":"서울특별시 강남구 도곡로63길 36","lon":37.499287954252892,"lat":127.053664243599002,"rate":5.0,"distance":997.0,"tag":"햄버거"},{"name":"피자스쿨","cate_1":"패스트푸드","cate_2":"피자전문","cate_3":"피자, 햄버거, 샌드위치 및 유사 음식점업","area":"대치동","address":"서울특별시 강남구 도곡로84길 6","lon":37.498899689405093,"lat":127.062603597098999,"rate":5.0,"distance":1062.0,"tag":"피자"},{"name":"왕제","cate_1":"중식","cate_2":"중국음식\/중국집","cate_3":"중식 음식점업","area":"대치동","address":"서울특별시 강남구 영동대로57길 28","lon":37.4999304583202,"lat":127.065327633433,"rate":3.2,"distance":1087.0,"tag":"중화요리"},{"name":"7스테이크","cate_1":"양식","cate_2":"스테이크전문점","cate_3":"서양식 음식점업","area":"삼성동","address":"서울특별시 강남구 영동대로 513","lon":37.5118203253706,"lat":127.059139102428006,"rate":3.2,"distance":480.0,"tag":"스테이크,립"},{"name":"불곱창&곱창컵밥","cate_1":"한식","cate_2":"곱창\/양구이전문","cate_3":"한식 음식점업","area":"삼성동","address":"서울특별시 강남구 영동대로 513","lon":37.5118203253706,"lat":127.059139102428006,"rate":3.7,"distance":480.0,"tag":"곱창,막창"},{"name":"바른식탁삼성점","cate_1":"한식","cate_2":"한식\/백반\/한정식","cate_3":"한식 음식점업","area":"삼성동","address":"서울특별시 강남구 테헤란로83길 15","lon":37.508455531683893,"lat":127.057330243728856,"rate":4.3,"distance":92.0,"tag":"한식뷔페"},{"name":"제주생선구이올래밥상","cate_1":"일식\/수산물","cate_2":"갈치\/생선구이","cate_3":"한식 음식점업","area":"삼성동","address":"서울특별시 강남구 삼성로100길 16","lon":37.509662171581361,"lat":127.056583716080922,"rate":5.0,"distance":247.0,"tag":"해물,생선"},{"name":"기소야 삼성점","cate_1":"일식\/수산물","cate_2":"음식점-일식","cate_3":"일식 음식점업","area":"삼성동","address":"서울 강남구 삼성로92길 13","lon":37.507989577107693,"lat":127.05759498181574,"rate":2.0,"distance":41.0,"tag":"돈까스,우동"},{"name":"호신각","cate_1":"중식","cate_2":"중국음식\/중국집","cate_3":"중식 음식점업","area":"삼성동","address":"서울특별시 강남구 테헤란로81길 16","lon":37.508191041243997,"lat":127.057126083908003,"rate":3.0,"distance":82.0,"tag":"중화요리"},{"name":"고반식당","cate_1":"한식","cate_2":"기타고기요리","cate_3":"한식 음식점업","area":"삼성동","address":"서울특별시 강남구 테헤란로81길 16","lon":37.508189741043942,"lat":127.057189601687554,"rate":3.0,"distance":82.0,"tag":"육류,고기"},{"name":"깡장보리밥","cate_1":"한식","cate_2":"보리밥전문","cate_3":"한식 음식점업","area":"삼성동","address":"서울 강남구 테헤란로83길 14","lon":37.508402206869128,"lat":127.057646633788835,"rate":4.5,"distance":83.0,"tag":"한식"},{"name":"토종시골집","cate_1":"한식","cate_2":"한식\/백반\/한정식","cate_3":"한식 음식점업","area":"삼성동","address":"서울 강남구 테헤란로83길 14","lon":37.508385185267422,"lat":127.057759286559687,"rate":4.5,"distance":83.0,"tag":"한식"},{"name":"명동칼국수","cate_1":"분식","cate_2":"국수\/만두\/칼국수","cate_3":"분식 및 김밥 전문점","area":"삼성동","address":"서울 강남구 테헤란로83길 14","lon":37.508419228466941,"lat":127.057721735636065,"rate":2.6,"distance":83.0,"tag":"국수"},{"name":"샤블랑157","cate_1":"별식\/퓨전요리","cate_2":"샤브샤브전문","cate_3":"한식 음식점업","area":"삼성동","address":"서울 강남구 테헤란로83길 11","lon":37.508134116185261,"lat":127.057496430094403,"rate":4.5,"distance":64.0,"tag":"샤브샤브"},{"name":"황금복국","cate_1":"일식\/수산물","cate_2":"복전문","cate_3":"한식 음식점업","area":"삼성동","address":"서울 강남구 삼성로96길 26-6","lon":37.508704339659545,"lat":127.058011414216736,"rate":3.3,"distance":122.0,"tag":"복어"},{"name":"돈꼬레","cate_1":"한식","cate_2":"기타고기요리","cate_3":"한식 음식점업","area":"삼성동","address":"서울 강남구 삼성로96길 13","lon":37.508967355675288,"lat":127.056960047509378,"rate":3.4,"distance":160.0,"tag":"육류,고기"},{"name":"오징어세상","cate_1":"수산물\/일식","cate_2":"횟집","cate_3":"한식 음식점업","area":"삼성동","address":"서울 강남구 삼성로96길 15","lon":37.50903336550769,"lat":127.057109386736286,"rate":3.8,"distance":169.0,"tag":"회"},{"name":"고메램","cate_1":"한식","cate_2":"기타고기요리","cate_3":"한식 음식점업","area":"삼성동","address":"서울 강남구 삼성로96길 15","lon":37.509103578979953,"lat":127.057077200229926,"rate":3.4,"distance":169.0,"tag":"육류,고기"},{"name":"스시욘즈","cate_1":"일식","cate_2":"음식점-초밥전문","cate_3":"일식 음식점업","area":"삼성동","address":"서울 강남구 삼성로96길 11","lon":37.508918470592377,"lat":127.05681702597056,"rate":4.3,"distance":168.0,"tag":"일식"},{"name":"화양연화","cate_1":"중식","cate_2":"중국음식\/중국집","cate_3":"중식 음식점업","area":"삼성동","address":"서울특별시 강남구 삼성로96길 11","lon":37.508945233419198,"lat":127.056788579908002,"rate":4.0,"distance":168.0,"tag":"중화요리"},{"name":"교대이층집","cate_1":"한식","cate_2":"기타고기요리","cate_3":"한식 음식점업","area":"삼성동","address":"서울 강남구 삼성로96길 9","lon":37.508875916875176,"lat":127.056674868900956,"rate":3.4,"distance":169.0,"tag":"육류,고기"},{"name":"장호왕","cate_1":"한식","cate_2":"곱창\/양구이전문","cate_3":"한식 음식점업","area":"삼성동","address":"서울 강남구 테헤란로81길 30","lon":37.509075919135128,"lat":127.056830437014838,"rate":3.0,"distance":181.0,"tag":"육류,고기"},{"name":"이향","cate_1":"한식","cate_2":"돌솥\/비빕밥전문점","cate_3":"한식 음식점업","area":"삼성동","address":"서울 강남구 테헤란로81길 30","lon":37.509061025368297,"lat":127.056741924122434,"rate":3.3,"distance":181.0,"tag":"한식"},{"name":"인성참치","cate_1":"일식\/수산물","cate_2":"참치전문점","cate_3":"한식 음식점업","area":"삼성동","address":"서울 강남구 테헤란로81길 34","lon":37.509112089700707,"lat":127.056564898336177,"rate":2.7,"distance":197.0,"tag":"참치회"},{"name":"진주","cate_1":"일식\/수산물","cate_2":"수산물전문음식점-종합","cate_3":"한식 음식점업","area":"삼성동","address":"서울 강남구 테헤란로83길 31","lon":37.509356772474199,"lat":127.056921632111127,"rate":5.0,"distance":207.0,"tag":"해물,생선"},{"name":"도리도리닭한마리","cate_1":"닭\/오리요리","cate_2":"닭도리탕전문","cate_3":"한식 음식점업","area":"삼성동","address":"서울특별시 강남구 테헤란로83길 31","lon":37.509387789940199,"lat":127.056918743392998,"rate":0.0,"distance":207.0,"tag":"닭요리"},{"name":"보름쇠","cate_1":"한식","cate_2":"기타고기요리","cate_3":"한식 음식점업","area":"삼성동","address":"서울 강남구 테헤란로81길 36","lon":37.509286559240081,"lat":127.056634635763075,"rate":3.3,"distance":203.0,"tag":"육류,고기"},{"name":"삼육가","cate_1":"한식","cate_2":"기타고기요리","cate_3":"한식 음식점업","area":"삼성동","address":"서울 강남구 테헤란로81길 38","lon":37.509388687560786,"lat":127.056454927767035,"rate":3.5,"distance":224.0,"tag":"육류,고기"},{"name":"에머이","cate_1":"별식\/퓨전요리","cate_2":"동남아음식전문점","cate_3":"기타 외국식 음식점업","area":"삼성동","address":"서울 강남구 삼성로96길 6","lon":37.508556381279142,"lat":127.056587557920807,"rate":2.5,"distance":142.0,"tag":"베트남음식"},{"name":"샐러디","cate_1":"양식","cate_2":"정통양식\/경양식","cate_3":"서양식 음식점업","area":"삼성동","address":"서울 강남구 삼성로96길 6","lon":37.508501688580026,"lat":127.056626955927598,"rate":4.3,"distance":142.0,"tag":"샐러드"},{"name":"깐부치킨","cate_1":"닭\/오리요리","cate_2":"후라이드\/양넘치킨","cate_3":"치킨 전문점","area":"삼성동","address":"서울 강남구 삼성로96길 3","lon":37.508705923423498,"lat":127.056158179969003,"rate":2.6,"distance":184.0,"tag":"치킨"},{"name":"문배동육칼","cate_1":"한식","cate_2":"한식\/백반\/한정식","cate_3":"한식 음식점업","area":"삼성동","address":"서울특별시 강남구 삼성로96길 3","lon":37.508773164548735,"lat":127.055985656150796,"rate":4.1,"distance":194.0,"tag":"한식"},{"name":"큐큐면관","cate_1":"중식","cate_2":"중국음식\/중국집","cate_3":"중식 음식점업","area":"삼성동","address":"서울 강남구 삼성로96길 7","lon":37.508757538112732,"lat":127.05632710554336,"rate":3.3,"distance":177.0,"tag":"중화요리"},{"name":"마초갈비","cate_1":"한식","cate_2":"갈비\/삼겹살","cate_3":"한식 음식점업","area":"삼성동","address":"서울특별시 강남구 삼성로96길 7","lon":37.508806927122698,"lat":127.056394437700007,"rate":3.6,"distance":177.0,"tag":"갈비"},{"name":"동어동락","cate_1":"일식\/수산물","cate_2":"횟집","cate_3":"한식 음식점업","area":"삼성동","address":"서울특별시 강남구 삼성로96길 7","lon":37.508793999791642,"lat":127.056445299563876,"rate":4.0,"distance":177.0,"tag":"회"},{"name":"오징어청춘","cate_1":"일식\/수산물","cate_2":"횟집","cate_3":"한식 음식점업","area":"삼성동","address":"서울특별시 강남구 삼성로96길 7","lon":37.508827857048928,"lat":127.056491263905158,"rate":2.5,"distance":177.0,"tag":"해물,생선"},{"name":"박서방순대국밥","cate_1":"별식\/퓨전요리","cate_2":"순대전문점","cate_3":"한식 음식점업","area":"삼성동","address":"서울특별시 강남구 삼성로 520","lon":37.508685825305399,"lat":127.055898282103996,"rate":3.6,"distance":201.0,"tag":"순대"},{"name":"써브웨이 삼성점","cate_1":"패스트푸드","cate_2":"패스트푸드","cate_3":"그외 기타 음식점업","area":"삼성동","address":"서울특별시 강남구 삼성로 520","lon":37.508583042688592,"lat":127.055933125475036,"rate":1.9,"distance":201.0,"tag":"샌드위치"},{"name":"전통백암순대국","cate_1":"별식\/퓨전요리","cate_2":"순대전문점","cate_3":"한식 음식점업","area":"삼성동","address":"서울특별시 강남구 테헤란로81길 37","lon":37.509336869934799,"lat":127.056184168485004,"rate":1.0,"distance":234.0,"tag":"순대"},{"name":"삼대나주곰탕","cate_1":"한식","cate_2":"설렁탕집","cate_3":"한식 음식점업","area":"삼성동","address":"서울특별시 강남구 삼성로100길 8","lon":37.509479939780697,"lat":127.056046634707002,"rate":2.8,"distance":254.0,"tag":"곰탕"},{"name":"담미온","cate_1":"한식","cate_2":"족발\/보쌈전문","cate_3":"한식 음식점업","area":"삼성동","address":"서울특별시 강남구 삼성로100길 8","lon":37.509452911355176,"lat":127.056071018491963,"rate":5.0,"distance":254.0,"tag":"국밥"},{"name":"할랄가이즈","cate_1":"양식","cate_2":"정통양식\/경양식","cate_3":"서양식 음식점업","area":"삼성동","address":"서울특별시 강남구 테헤란로83길 11","lon":37.508148430072602,"lat":127.057432012275996,"rate":0.0,"distance":63.0,"tag":"양식"},{"name":"마라지존","cate_1":"중식","cate_2":"중국음식\/중국집","cate_3":"중식 음식점업","area":"삼성동","address":"서울특별시 강남구 테헤란로83길 11","lon":37.508135082410199,"lat":127.057571426004856,"rate":5.0,"distance":63.0,"tag":"중화요리"},{"name":"더뭉티기","cate_1":"한식","cate_2":"한식\/백반\/한정식","cate_3":"한식 음식점업","area":"삼성동","address":"서울특별시 강남구 테헤란로83길 14","lon":37.508466835766299,"lat":127.057812578476998,"rate":3.0,"distance":91.0,"tag":"한식"},{"name":"이향숯불갈비","cate_1":"한식","cate_2":"갈비\/삼겹살","cate_3":"한식 음식점업","area":"삼성동","address":"서울특별시 강남구 테헤란로83길 14","lon":37.508431986613601,"lat":127.057909592259776,"rate":3.3,"distance":91.0,"tag":"한식"},{"name":"김밥천국","cate_1":"분식","cate_2":"라면김밥분식","cate_3":"분식 및 김밥 전문점","area":"삼성동","address":"서울특별시 강남구 테헤란로83길 14","lon":37.508471052867812,"lat":127.058004804109643,"rate":2.0,"distance":91.0,"tag":"분식"},{"name":"소공동뚝배기집","cate_1":"한식","cate_2":"한식\/백반\/한정식","cate_3":"한식 음식점업","area":"삼성동","address":"서울특별시 강남구 테헤란로87길 21","lon":37.509046880926199,"lat":127.058235104470995,"rate":1.0,"distance":161.0,"tag":"한식"},{"name":"뻘밭에핀꽃","cate_1":"일식\/수산물","cate_2":"수산물전문음식점-종합","cate_3":"한식 음식점업","area":"삼성동","address":"서울특별시 강남구 테헤란로87길 21","lon":37.509098714558711,"lat":127.05834297036948,"rate":4.5,"distance":161.0,"tag":"한식"},{"name":"마노디셰프","cate_1":"양식","cate_2":"정통양식\/경양식","cate_3":"서양식 음식점업","area":"삼성동","address":"서울특별시 강남구 테헤란로87길 21","lon":37.508999747507133,"lat":127.058149263502543,"rate":3.8,"distance":161.0,"tag":"이탈리안"},{"name":"목포명가","cate_1":"일식\/수산물","cate_2":"수산물전문음식점-종합","cate_3":"한식 음식점업","area":"삼성동","address":"서울특별 강남구 삼성로100길 24","lon":37.509845790091518,"lat":127.057276555038683,"rate":2.2,"distance":248.0,"tag":"해물,생선"},{"name":"스시유리","cate_1":"일식\/수산물","cate_2":"음식점-일식","cate_3":"일식 음식점업","area":"삼성동","address":"서울특별시 강남구 테헤란로83길 36","lon":37.509784485422202,"lat":127.056947685596995,"rate":3.7,"distance":248.0,"tag":"일식"},{"name":"푸에르코 삼성점","cate_1":"한식","cate_2":"기타고기요리","cate_3":"한식 음식점업","area":"삼성동","address":"서울 강남구 테헤란로87길 35","lon":37.509944756026286,"lat":127.057746047972742,"rate":5.0,"distance":256.0,"tag":"육류,고기"},{"name":"차이797","cate_1":"중식","cate_2":"중국음식\/중국집","cate_3":"한식 음식점업","area":"삼성동","address":"서울특별시 강남구 테헤란로87길 35","lon":37.5099527066604,"lat":127.057703413007999,"rate":2.9,"distance":256.0,"tag":"중식"},{"name":"투뿔등심고담","cate_1":"한식","cate_2":"기타고기요리","cate_3":"한식 음식점업","area":"삼성동","address":"서울 강남구 테헤란로87길 33","lon":37.509811933300881,"lat":127.058005418192622,"rate":2.8,"distance":242.0,"tag":"육류,고기"},{"name":"해품초","cate_1":"일식\/수산물","cate_2":"수산물전문음식점-종합점","cate_3":"한식 음식점업","area":"삼성동","address":"서울 강남구 테헤란로87길 29","lon":37.509642649092527,"lat":127.057979152853903,"rate":3.6,"distance":228.0,"tag":"한정식"},{"name":"시추안하우스","cate_1":"중식","cate_2":"중국음식\/중국집","cate_3":"한식 음식점업","area":"삼성동","address":"서울 강남구 테헤란로87길 29","lon":37.509554100276759,"lat":127.058028400364037,"rate":3.2,"distance":228.0,"tag":"중화요리"},{"name":"브라운치킨","cate_1":"닭\/오리요리","cate_2":"후라이드\/양넘치킨","cate_3":"치킨 전문점","area":"삼성동","address":"서울 강남구 삼성로96길 27","lon":37.509314497064281,"lat":127.057959453856284,"rate":3.0,"distance":188.0,"tag":"치킨"},{"name":"능라도","cate_1":"한식","cate_2":"냉면집","cate_3":"한식 음식점업","area":"삼성동","address":"서울 강남구 삼성로 534","lon":37.509635629640577,"lat":127.055546483095085,"rate":3.7,"distance":290.0,"tag":"냉면"},{"name":"서백자간장게장","cate_1":"일식\/수산물","cate_2":"게장전문","cate_3":"한식 음식점업","area":"삼성동","address":"서울 강남구 삼성로 542","lon":37.510215824312262,"lat":127.055345544465624,"rate":4.3,"distance":361.0,"tag":"게,대게"},{"name":"곰바위","cate_1":"한식","cate_2":"곱창\/양구이전문","cate_3":"한식 음식점업","area":"삼성동","address":"서울특별시 강남구 삼성로 542","lon":37.510212491637901,"lat":127.055256940819007,"rate":3.1,"distance":361.0,"tag":"곱창,막창"},{"name":"배꼽양대창","cate_1":"한식","cate_2":"곱창\/양구이전문","cate_3":"한식 음식점업","area":"삼성동","address":"서울특별시 강남구 테헤란로81길 51","lon":37.510422878930598,"lat":127.055650180100002,"rate":5.0,"distance":361.0,"tag":"곱창,막창"},{"name":"진대감","cate_1":"한식","cate_2":"한식\/백반\/한정식","cate_3":"한식 음식점업","area":"삼성동","address":"서울특별시 강남구 테헤란로81길 47","lon":37.510207009126496,"lat":127.055698144337995,"rate":4.6,"distance":338.0,"tag":"육류,고기"},{"name":"강남한우정육식당","cate_1":"한식","cate_2":"기타고기요리","cate_3":"한식 음식점업","area":"삼성동","address":"서울 강남구 삼성로 546","lon":37.510314648233539,"lat":127.055112455651695,"rate":3.0,"distance":382.0,"tag":"육류,고기"},{"name":"하남돼지집 삼성코엑스직영점","cate_1":"한식","cate_2":"기타고기요리","cate_3":"한식 음식점업","area":"삼성동","address":"서울 강남구 테헤란로81길 53","lon":37.510540986390673,"lat":127.055614802225307,"rate":3.7,"distance":374.0,"tag":"삼겹살"}]